{"type":"Topology","arcs":[],"transform":{"scale":[0.0008670522705227052,0.0003907282498087078],"translate":[-149.97998,25.76131]},"objects":{"stations":{"type":"GeometryCollection","geometries":[
{"type":"Point","coordinates":[92793,56462],"properties":{"id":"002","lon":-69.5235,"city":"Rivière-du-loup","province":"QC","country":"CAN","lat":47.8227,"state":null}},
{"type":"Point","coordinates":[33107,63902],"properties":{"id":"005","lon":-121.27485,"city":"Ashcroft","province":"BC","country":"CAN","lat":50.72968,"state":null}},
{"type":"Point","coordinates":[48424,67320],"properties":{"id":"007","lon":-107.99377,"city":"Biggar","province":"SK","country":"CAN","lat":52.06516,"state":null}},
{"type":"Point","coordinates":[27934,72854],"properties":{"id":"009","lon":-125.76006,"city":"Burns Lake","province":"BC","country":"CAN","lat":54.22721,"state":null}},
{"type":"Point","coordinates":[80404,44494],"properties":{"id":"010","lon":-80.26577,"city":"Brantford","province":"ON","country":"CAN","lat":43.14639,"state":null}},
{"type":"Point","coordinates":[34533,66260],"properties":{"id":"011","lon":-120.03806,"city":"Clearwater","province":"BC","country":"CAN","lat":51.65096,"state":null}},
{"type":"Point","coordinates":[57584,64979],"properties":{"id":"013","lon":-100.0515,"city":"Dauphin","province":"MB","country":"CAN","lat":51.15025,"state":null}},
{"type":"Point","coordinates":[89374,51498],"properties":{"id":"014","lon":-72.48809,"city":"Drummondville","province":"QC","country":"CAN","lat":45.882854,"state":null}},
{"type":"Point","coordinates":[38694,71198],"properties":{"id":"015","lon":-116.430119,"city":"Edson","province":"AB","country":"CAN","lat":53.580306,"state":null}},
{"type":"Point","coordinates":[62364,61714],"properties":{"id":"016","lon":-95.90722,"city":"Whitemouth","province":"MB","country":"CAN","lat":49.87457,"state":null}},
{"type":"Point","coordinates":[63755,78279],"properties":{"id":"020","lon":-94.701309,"city":"Gillam","province":"MB","country":"CAN","lat":56.347247,"state":null}},
{"type":"Point","coordinates":[37371,70739],"properties":{"id":"022","lon":-117.57697,"city":"Hinton","province":"AB","country":"CAN","lat":53.40095,"state":null}},
{"type":"Point","coordinates":[79689,44223],"properties":{"id":"023","lon":-80.885059,"city":"Ingersoll","province":"ON","country":"CAN","lat":43.040416,"state":null}},
{"type":"Point","coordinates":[36792,69396],"properties":{"id":"024","lon":-118.079698,"city":"Jasper","province":"AB","country":"CAN","lat":52.876253,"state":null}},
{"type":"Point","coordinates":[23568,72852],"properties":{"id":"026","lon":-129.54496,"city":"Skeena-Queen Charlotte","province":"BC","country":"CAN","lat":54.22674,"state":null}},
{"type":"Point","coordinates":[92215,55283],"properties":{"id":"027","lon":-70.02497,"city":"La Pocatière","province":"QC","country":"CAN","lat":47.361932,"state":null}},
{"type":"Point","coordinates":[34386,70486],"properties":{"id":"028","lon":-120.16513,"city":"McBride","province":"BC","country":"CAN","lat":53.30222,"state":null}},
{"type":"Point","coordinates":[97349,54369],"properties":{"id":"030","lon":-65.573258,"city":"Miramichi","province":"NB","country":"CAN","lat":47.004789,"state":null}},
{"type":"Point","coordinates":[32905,61718],"properties":{"id":"032","lon":-121.4496,"city":"Fraser Valley","province":"BC","country":"CAN","lat":49.87624,"state":null}},
{"type":"Point","coordinates":[97016,57431],"properties":{"id":"033","lon":-65.86189,"city":"New Richmond","province":"QC","country":"CAN","lat":48.20117,"state":null}},
{"type":"Point","coordinates":[59618,61976],"properties":{"id":"035","lon":-98.288133,"city":"Portage la Prairie","province":"MB","country":"CAN","lat":49.977118,"state":null}},
{"type":"Point","coordinates":[65914,62011],"properties":{"id":"037","lon":-92.82902,"city":"Kenora District","province":"ON","country":"CAN","lat":49.99075,"state":null}},
{"type":"Point","coordinates":[57370,62110],"properties":{"id":"038","lon":-100.23751,"city":"Riverdale","province":"MB","country":"CAN","lat":50.02932,"state":null}},
{"type":"Point","coordinates":[98740,51517],"properties":{"id":"039","lon":-64.36739,"city":"Sackville","province":"NB","country":"CAN","lat":45.890495,"state":null}},
{"type":"Point","coordinates":[83480,46979],"properties":{"id":"044","lon":-77.598402,"city":"Quinte West","province":"ON","country":"CAN","lat":44.117106,"state":null}},
{"type":"Point","coordinates":[24674,73590],"properties":{"id":"045","lon":-128.58621,"city":"Terrace","province":"BC","country":"CAN","lat":54.51479,"state":null}},
{"type":"Point","coordinates":[47096,68272],"properties":{"id":"046","lon":-109.14558,"city":"Unity","province":"SK","country":"CAN","lat":52.43711,"state":null}},
{"type":"Point","coordinates":[29949,72308],"properties":{"id":"047","lon":-124.01298,"city":"Vanderhoof","province":"BC","country":"CAN","lat":54.01399,"state":null}},
{"type":"Point","coordinates":[44053,69956],"properties":{"id":"048","lon":-111.78384,"city":"Viking","province":"AB","country":"CAN","lat":53.09508,"state":null}},
{"type":"Point","coordinates":[75225,42193],"properties":{"id":"049","lon":-84.75633,"city":"Albion","province":null,"country":"USA","lat":42.24737,"state":"MI"}},
{"type":"Point","coordinates":[82554,37759],"properties":{"id":"050","lon":-78.40099,"city":"Altoona","province":null,"country":"USA","lat":40.51478,"state":"PA"}},
{"type":"Point","coordinates":[60663,16859],"properties":{"id":"051","lon":-97.38166,"city":"Cleburne","province":null,"country":"USA","lat":32.34833,"state":"TX"}},
{"type":"Point","coordinates":[32521,44674],"properties":{"id":"052","lon":-121.7828,"city":"Chemult","province":null,"country":"USA","lat":43.21655,"state":"OR"}},
{"type":"Point","coordinates":[43423,58546],"properties":{"id":"053","lon":-112.33003,"city":"Cut Bank","province":null,"country":"USA","lat":48.63694,"state":"MT"}},
{"type":"Point","coordinates":[79150,8332],"properties":{"id":"054","lon":-81.35246,"city":"Deland","province":null,"country":"USA","lat":29.01683,"state":"FL"}},
{"type":"Point","coordinates":[73665,41512],"properties":{"id":"055","lon":-86.10873,"city":"Dowagiac","province":null,"country":"USA","lat":41.9812,"state":"MI"}},
{"type":"Point","coordinates":[56637,31233],"properties":{"id":"056","lon":-100.87279,"city":"Garden City","province":null,"country":"USA","lat":37.96472,"state":"KS"}},
{"type":"Point","coordinates":[80905,26361],"properties":{"id":"057","lon":-79.83135,"city":"Greensboro","province":null,"country":"USA","lat":36.0612,"state":"NC"}},
{"type":"Point","coordinates":[83324,34714],"properties":{"id":"058","lon":-77.73356,"city":"Harpers Ferry","province":null,"country":"USA","lat":39.32504,"state":"WV"}},
{"type":"Point","coordinates":[77895,32386],"properties":{"id":"059","lon":-82.44084,"city":"Huntington","province":null,"country":"USA","lat":38.41541,"state":"WV"}},
{"type":"Point","coordinates":[71392,40344],"properties":{"id":"060","lon":-88.07914,"city":"Joliet","province":null,"country":"USA","lat":41.52488,"state":"IL"}},
{"type":"Point","coordinates":[37600,19019],"properties":{"id":"061","lon":-117.37862,"city":"Oceanside","province":null,"country":"USA","lat":33.19258,"state":"CA"}},
{"type":"Point","coordinates":[69798,39991],"properties":{"id":"062","lon":-89.46168,"city":"Princeton","province":null,"country":"USA","lat":41.38691,"state":"IL"}},
{"type":"Point","coordinates":[70864,40696],"properties":{"id":"063","lon":-88.53742,"city":"Plano","province":null,"country":"USA","lat":41.66215,"state":"IL"}},
{"type":"Point","coordinates":[77583,40127],"properties":{"id":"064","lon":-82.71189,"city":"Sandusky","province":null,"country":"USA","lat":41.44013,"state":"OH"}},
{"type":"Point","coordinates":[31868,57534],"properties":{"id":"065","lon":-122.34882,"city":"Stanwood","province":null,"country":"USA","lat":48.2415,"state":"WA"}},
{"type":"Point","coordinates":[31993,55537],"properties":{"id":"066","lon":-122.24006,"city":"Tukwila","province":null,"country":"USA","lat":47.46115,"state":"WA"}},
{"type":"Point","coordinates":[75645,20573],"properties":{"id":"071","lon":-84.3918896,"city":"Atlanta","province":null,"country":"USA","lat":33.799809093,"state":"GA"}},
{"type":"Point","coordinates":[34228,63758],"properties":{"id":"073","lon":-120.30284605,"city":"N Kamloops","province":"BC","country":"CAN","lat":50.673182419,"state":null}},
{"type":"Point","coordinates":[69261,39630],"properties":{"id":"074","lon":-89.927421999,"city":"Kewanee","province":null,"country":"USA","lat":41.245625,"state":"IL"}},
{"type":"Point","coordinates":[74790,35537],"properties":{"id":"075","lon":-85.13356,"city":"Connersville","province":null,"country":"USA","lat":39.646465,"state":"IN"}},
{"type":"Point","coordinates":[72753,36555],"properties":{"id":"076","lon":-86.899384,"city":"Crawfordsville","province":null,"country":"USA","lat":40.044254,"state":"IN"}},
{"type":"Point","coordinates":[87764,39494],"properties":{"id":"077","lon":-73.883842,"city":"Croton-on-Hudson","province":null,"country":"USA","lat":41.19273,"state":"NY"}},
{"type":"Point","coordinates":[69305,34597],"properties":{"id":"078","lon":-89.888916,"city":"Carlinville","province":null,"country":"USA","lat":39.279327001,"state":"IL"}},
{"type":"Point","coordinates":[31172,53634],"properties":{"id":"079","lon":-122.951881,"city":"Centralia","province":null,"country":"USA","lat":46.717422,"state":"WA"}},
{"type":"Point","coordinates":[48693,16661],"properties":{"id":"080","lon":-107.760834,"city":"Deming","province":null,"country":"USA","lat":32.271084001,"state":"NM"}},
{"type":"Point","coordinates":[81435,22156],"properties":{"id":"081","lon":-79.371758,"city":"Dillon","province":null,"country":"USA","lat":34.418284999,"state":"SC"}},
{"type":"Point","coordinates":[79392,19361],"properties":{"id":"082","lon":-81.14315,"city":"Denmark","province":null,"country":"USA","lat":33.326145,"state":"SC"}},
{"type":"Point","coordinates":[70053,31352],"properties":{"id":"083","lon":-89.240158,"city":"Du Quoin","province":null,"country":"USA","lat":38.011353,"state":"IL"}},
{"type":"Point","coordinates":[58957,57199],"properties":{"id":"084","lon":-98.861373999,"city":"Devils Lake","province":null,"country":"USA","lat":48.110645,"state":"ND"}},
{"type":"Point","coordinates":[73824,40743],"properties":{"id":"085","lon":-85.971054001,"city":"Elkhart","province":null,"country":"USA","lat":41.680721,"state":"IN"}},
{"type":"Point","coordinates":[80990,21595],"properties":{"id":"086","lon":-79.757095,"city":"Florence","province":null,"country":"USA","lat":34.198818,"state":"SC"}},
{"type":"Point","coordinates":[53258,37075],"properties":{"id":"087","lon":-103.80265,"city":"Fort Morgan","province":null,"country":"USA","lat":40.24733,"state":"CO"}},
{"type":"Point","coordinates":[49991,57414],"properties":{"id":"088","lon":-106.634811,"city":"Glasgow","province":null,"country":"USA","lat":48.194515,"state":"MT"}},
{"type":"Point","coordinates":[60942,20125],"properties":{"id":"089","lon":-97.140266,"city":"Gainesville","province":null,"country":"USA","lat":33.624424,"state":"TX"}},
{"type":"Point","coordinates":[81058,23346],"properties":{"id":"090","lon":-79.698456001,"city":"Hamlet","province":null,"country":"USA","lat":34.883072001,"state":"NC"}},
{"type":"Point","coordinates":[67525,33133],"properties":{"id":"091","lon":-91.432602,"city":"Herman","province":null,"country":"USA","lat":38.707293999,"state":"MO"}},
{"type":"Point","coordinates":[45127,35644],"properties":{"id":"092","lon":-110.852577,"city":"Helper","province":null,"country":"USA","lat":39.688197999,"state":"UT"}},
{"type":"Point","coordinates":[79685,30497],"properties":{"id":"093","lon":-80.888634001,"city":"Hinton","province":null,"country":"USA","lat":37.677071001,"state":"WV"}},
{"type":"Point","coordinates":[58369,37558],"properties":{"id":"094","lon":-99.370743001,"city":"Holdrege","province":null,"country":"USA","lat":40.436192,"state":"NE"}},
{"type":"Point","coordinates":[68642,12158],"properties":{"id":"095","lon":-90.463593,"city":"Hammond","province":null,"country":"USA","lat":30.511698,"state":"LA"}},
{"type":"Point","coordinates":[69911,36819],"properties":{"id":"096","lon":-89.363303999,"city":"Lincoln","province":null,"country":"USA","lat":40.147537,"state":"IL"}},
{"type":"Point","coordinates":[83502,37948],"properties":{"id":"097","lon":-77.579216,"city":"Lewistown","province":null,"country":"USA","lat":40.588585,"state":"PA"}},
{"type":"Point","coordinates":[85136,35186],"properties":{"id":"098","lon":-76.16301,"city":"Aberdeen","province":null,"country":"USA","lat":39.509460001,"state":"MD"}},
{"type":"Point","coordinates":[32483,31369],"properties":{"id":"099","lon":-121.815132,"city":"Antioch","province":null,"country":"USA","lat":38.018085,"state":"CA"}},
{"type":"Point","coordinates":[87929,43202],"properties":{"id":"100","lon":-73.741257,"city":"Rensselaer","province":null,"country":"USA","lat":42.641647,"state":"NY"}},
{"type":"Point","coordinates":[31002,48293],"properties":{"id":"101","lon":-123.099648,"city":"Albany","province":null,"country":"USA","lat":44.630756,"state":"OR"}},
{"type":"Point","coordinates":[65656,21379],"properties":{"id":"102","lon":-93.052444,"city":"Arkadelphia","province":null,"country":"USA","lat":34.114376,"state":"AR"}},
{"type":"Point","coordinates":[73984,20187],"properties":{"id":"103","lon":-85.831886,"city":"Anniston","province":null,"country":"USA","lat":33.648998,"state":"AL"}},
{"type":"Point","coordinates":[38008,23401],"properties":{"id":"104","lon":-117.025352,"city":"Barstow","province":null,"country":"USA","lat":34.9048,"state":"CA"}},
{"type":"Point","coordinates":[45771,15886],"properties":{"id":"105","lon":-110.293983,"city":"Benson","province":null,"country":"USA","lat":31.968168,"state":"AZ"}},
{"type":"Point","coordinates":[89423,44467],"properties":{"id":"106","lon":-72.445449999,"city":"Bellows Falls","province":null,"country":"USA","lat":43.135826,"state":"VT"}},
{"type":"Point","coordinates":[64422,11045],"properties":{"id":"107","lon":-94.122962999,"city":"Beaumont","province":null,"country":"USA","lat":30.076906,"state":"TX"}},
{"type":"Point","coordinates":[81360,26445],"properties":{"id":"108","lon":-79.436287,"city":"Burlington","province":null,"country":"USA","lat":36.094177001,"state":"NC"}},
{"type":"Point","coordinates":[70173,32674],"properties":{"id":"109","lon":-89.136192,"city":"Centralia","province":null,"country":"USA","lat":38.527770999,"state":"IL"}},
{"type":"Point","coordinates":[34028,29550],"properties":{"id":"110","lon":-120.475891,"city":"Merced","province":null,"country":"USA","lat":37.307040999,"state":"CA"}},
{"type":"Point","coordinates":[70195,40409],"properties":{"id":"111","lon":-89.117287,"city":"Mendota","province":null,"country":"USA","lat":41.550041,"state":"IL"}},
{"type":"Point","coordinates":[70681,16898],"properties":{"id":"112","lon":-88.696167,"city":"Meridian","province":null,"country":"USA","lat":32.363823,"state":"MS"}},
{"type":"Point","coordinates":[60693,23676],"properties":{"id":"113","lon":-97.356338999,"city":"Purcell","province":null,"country":"USA","lat":35.011974001,"state":"OK"}},
{"type":"Point","coordinates":[66245,48124],"properties":{"id":"114","lon":-92.54184,"city":"Red Wing","province":null,"country":"USA","lat":44.564540999,"state":"MN"}},
{"type":"Point","coordinates":[68009,32760],"properties":{"id":"115","lon":-91.012222,"city":"Washington","province":null,"country":"USA","lat":38.561375,"state":"MO"}},
{"type":"Point","coordinates":[84507,29469],"properties":{"id":"116","lon":-76.708054001,"city":"Williamsburg","province":null,"country":"USA","lat":37.275725999,"state":"VA"}},
{"type":"Point","coordinates":[83123,25496],"properties":{"id":"117","lon":-77.908295,"city":"Wilson","province":null,"country":"USA","lat":35.723068,"state":"NC"}},
{"type":"Point","coordinates":[65933,22022],"properties":{"id":"118","lon":-92.812355,"city":"Malvern","province":null,"country":"USA","lat":34.365917,"state":"AR"}},
{"type":"Point","coordinates":[57646,57861],"properties":{"id":"119","lon":-99.997627,"city":"Rugby","province":null,"country":"USA","lat":48.369286,"state":"ND"}},
{"type":"Point","coordinates":[43973,58209],"properties":{"id":"120","lon":-111.853226,"city":"Shelby","province":null,"country":"USA","lat":48.505314,"state":"MT"}},
{"type":"Point","coordinates":[80358,30774],"properties":{"id":"121","lon":-80.305809001,"city":"White Sulphur Springs","province":null,"country":"USA","lat":37.785419,"state":"WV"}},
{"type":"Point","coordinates":[78710,5736],"properties":{"id":"122","lon":-81.734260999,"city":"Winter Haven","province":null,"country":"USA","lat":28.002250999,"state":"FL"}},
{"type":"Point","coordinates":[53468,57282],"properties":{"id":"123","lon":-103.620377,"city":"Williston","province":null,"country":"USA","lat":48.142765,"state":"ND"}},
{"type":"Point","coordinates":[62341,39641],"properties":{"id":"124","lon":-95.927495108,"city":"Omaha","province":null,"country":"USA","lat":41.250124573,"state":"NE"}},
{"type":"Point","coordinates":[79116,7075],"properties":{"id":"125","lon":-81.381948398,"city":"Orlando","province":null,"country":"USA","lat":28.525539437,"state":"FL"}},
{"type":"Point","coordinates":[31491,50591],"properties":{"id":"126","lon":-122.67523531,"city":"Portland","province":null,"country":"USA","lat":45.528532395,"state":"OR"}},
{"type":"Point","coordinates":[32847,32817],"properties":{"id":"128","lon":-121.49967183,"city":"Sacramento","province":null,"country":"USA","lat":38.583819248,"state":"CA"}},
{"type":"Point","coordinates":[79390,16168],"properties":{"id":"129","lon":-81.144417201,"city":"Savannah","province":null,"country":"USA","lat":32.078520752,"state":"GA"}},
{"type":"Point","coordinates":[31891,55890],"properties":{"id":"130","lon":-122.32887164,"city":"Seattle","province":null,"country":"USA","lat":47.5988816,"state":"WA"}},
{"type":"Point","coordinates":[87365,49944],"properties":{"id":"131","lon":-74.230100015,"city":"Les Coteaux","province":"QC","country":"CAN","lat":45.275868971,"state":null}},
{"type":"Point","coordinates":[67738,46253],"properties":{"id":"132","lon":-91.247698667,"city":"La Crosse","province":null,"country":"USA","lat":43.833647315,"state":"WI"}},
{"type":"Point","coordinates":[66391,39052],"properties":{"id":"133","lon":-92.415488402,"city":"Ottumwa","province":null,"country":"USA","lat":41.019824216,"state":"IA"}},
{"type":"Point","coordinates":[41947,57635],"properties":{"id":"134","lon":-113.60931736,"city":"Essex","province":null,"country":"USA","lat":48.280758977,"state":"MT"}},
{"type":"Point","coordinates":[86628,57013],"properties":{"id":"137","lon":-74.86927487,"city":"Lac Lysburg","province":"QC","country":"CAN","lat":48.037903916,"state":null}},
{"type":"Point","coordinates":[80877,44922],"properties":{"id":"138","lon":-79.855702493,"city":"Burlington","province":"ON","country":"CAN","lat":43.313411756,"state":null}},
{"type":"Point","coordinates":[90797,57971],"properties":{"id":"139","lon":-71.254481938,"city":"Saguenay","province":"QC","country":"CAN","lat":48.412191037,"state":null}},
{"type":"Point","coordinates":[81246,45751],"properties":{"id":"140","lon":-79.535251315,"city":"Toronto","province":"ON","country":"CAN","lat":43.637480061,"state":null}},
{"type":"Point","coordinates":[79273,44072],"properties":{"id":"141","lon":-81.246339678,"city":"London","province":"ON","country":"CAN","lat":42.981496762,"state":null}},
{"type":"Point","coordinates":[98254,52016],"properties":{"id":"142","lon":-64.7884509,"city":"Moncton","province":"NB","country":"CAN","lat":46.085255063,"state":null}},
{"type":"Point","coordinates":[88008,50582],"properties":{"id":"143","lon":-73.672117641,"city":"Montréal","province":"QC","country":"CAN","lat":45.525001384,"state":null}},
{"type":"Point","coordinates":[81993,46354],"properties":{"id":"144","lon":-78.887438962,"city":"Oshawa","province":"ON","country":"CAN","lat":43.872880766,"state":null}},
{"type":"Point","coordinates":[31413,72064],"properties":{"id":"145","lon":-122.74347154,"city":"Prince George","province":"BC","country":"CAN","lat":53.918605873,"state":null}},
{"type":"Point","coordinates":[83469,44538],"properties":{"id":"146","lon":-77.608225501,"city":"Rochester","province":null,"country":"USA","lat":43.163539974,"state":"NY"}},
{"type":"Point","coordinates":[31003,60177],"properties":{"id":"147","lon":-123.09847271,"city":"Vancouver","province":"BC","country":"CAN","lat":49.274149954,"state":null}},
{"type":"Point","coordinates":[60949,61751],"properties":{"id":"148","lon":-97.134153585,"city":"Winnipeg","province":"MB","country":"CAN","lat":49.88893813,"state":null}},
{"type":"Point","coordinates":[49978,23858],"properties":{"id":"149","lon":-106.64663018,"city":"Albuquerque","province":null,"country":"USA","lat":35.083018423,"state":"NM"}},
{"type":"Point","coordinates":[77666,32554],"properties":{"id":"150","lon":-82.639568113,"city":"Ashland","province":null,"country":"USA","lat":38.481027607,"state":"KY"}},
{"type":"Point","coordinates":[76392,42296],"properties":{"id":"151","lon":-83.744304113,"city":"Ann Arbor","province":null,"country":"USA","lat":42.287457015,"state":"MI"}},
{"type":"Point","coordinates":[60233,11537],"properties":{"id":"152","lon":-97.755189695,"city":"Austin","province":null,"country":"USA","lat":30.269073996,"state":"TX"}},
{"type":"Point","coordinates":[84611,34671],"properties":{"id":"153","lon":-76.617504475,"city":"Baltimore","province":null,"country":"USA","lat":39.308068752,"state":"MD"}},
{"type":"Point","coordinates":[82007,43808],"properties":{"id":"154","lon":-78.875346464,"city":"Buffalo","province":null,"country":"USA","lat":42.878312786,"state":"NY"}},
{"type":"Point","coordinates":[72859,19838],"properties":{"id":"155","lon":-86.807160921,"city":"Birmingham","province":null,"country":"USA","lat":33.512503383,"state":"AL"}},
{"type":"Point","coordinates":[91027,42460],"properties":{"id":"156","lon":-71.054955733,"city":"Boston","province":null,"country":"USA","lat":42.35140754,"state":"MA"}},
{"type":"Point","coordinates":[71900,41250],"properties":{"id":"157","lon":-87.638951983,"city":"Chicago","province":null,"country":"USA","lat":41.878644456,"state":"IL"}},
{"type":"Point","coordinates":[80708,18227],"properties":{"id":"158","lon":-80.00227399,"city":"Charleston","province":null,"country":"USA","lat":32.883058963,"state":"SC"}},
{"type":"Point","coordinates":[78811,32224],"properties":{"id":"159","lon":-81.647119588,"city":"Charleston","province":null,"country":"USA","lat":38.351949553,"state":"WV"}},
{"type":"Point","coordinates":[32449,35733],"properties":{"id":"160","lon":-121.84517175,"city":"Chico","province":null,"country":"USA","lat":39.723158663,"state":"CA"}},
{"type":"Point","coordinates":[75478,34145],"properties":{"id":"161","lon":-84.536362684,"city":"Cincinnati","province":null,"country":"USA","lat":39.102485469,"state":"OH"}},
{"type":"Point","coordinates":[79510,21069],"properties":{"id":"162","lon":-81.040767225,"city":"Columbia","province":null,"country":"USA","lat":33.993505491,"state":"SC"}},
{"type":"Point","coordinates":[78752,40292],"properties":{"id":"163","lon":-81.698080826,"city":"Cleveland","province":null,"country":"USA","lat":41.504357335,"state":"OH"}},
{"type":"Point","coordinates":[79760,24262],"properties":{"id":"164","lon":-80.823966024,"city":"Charlotte","province":null,"country":"USA","lat":35.24112923,"state":"NC"}},
{"type":"Point","coordinates":[82450,31405],"properties":{"id":"165","lon":-78.491841551,"city":"Charlottesville","province":null,"country":"USA","lat":38.032196929,"state":"VA"}},
{"type":"Point","coordinates":[61325,17951],"properties":{"id":"166","lon":-96.807656159,"city":"Dallas","province":null,"country":"USA","lat":32.77530684,"state":"TX"}},
{"type":"Point","coordinates":[51878,35810],"properties":{"id":"167","lon":-104.99945931,"city":"Denver","province":null,"country":"USA","lat":39.75336842,"state":"CO"}},
{"type":"Point","coordinates":[77167,42501],"properties":{"id":"168","lon":-83.072306765,"city":"Detroit","province":null,"country":"USA","lat":42.367493255,"state":"MI"}},
{"type":"Point","coordinates":[81970,26197],"properties":{"id":"169","lon":-78.907305207,"city":"Durham","province":null,"country":"USA","lat":35.99715783,"state":"NC"}},
{"type":"Point","coordinates":[50153,15347],"properties":{"id":"170","lon":-106.49461022,"city":"El Paso","province":null,"country":"USA","lat":31.757591124,"state":"TX"}},
{"type":"Point","coordinates":[80617,41870],"properties":{"id":"171","lon":-80.081141192,"city":"Erie","province":null,"country":"USA","lat":42.121107183,"state":"PA"}},
{"type":"Point","coordinates":[31011,46820],"properties":{"id":"172","lon":-123.09156272,"city":"Eugene","province":null,"country":"USA","lat":44.055316313,"state":"OR"}},
{"type":"Point","coordinates":[61352,54053],"properties":{"id":"173","lon":-96.784334914,"city":"Fargo","province":null,"country":"USA","lat":46.881301783,"state":"ND"}},
{"type":"Point","coordinates":[81996,23785],"properties":{"id":"174","lon":-78.884847712,"city":"Fayetteville","province":null,"country":"USA","lat":35.054770339,"state":"NC"}},
{"type":"Point","coordinates":[44207,24152],"properties":{"id":"175","lon":-111.6503328,"city":"Flagstaff","province":null,"country":"USA","lat":35.197972434,"state":"AZ"}},
{"type":"Point","coordinates":[34828,28095],"properties":{"id":"176","lon":-119.78253721,"city":"Fresno","province":null,"country":"USA","lat":36.738670052,"state":"CA"}},
{"type":"Point","coordinates":[90608,42268],"properties":{"id":"177","lon":-71.417730651,"city":"Framingham","province":null,"country":"USA","lat":42.276471649,"state":"MA"}},
{"type":"Point","coordinates":[60730,17885],"properties":{"id":"178","lon":-97.324178542,"city":"Ft Worth","province":null,"country":"USA","lat":32.749412763,"state":"TX"}},
{"type":"Point","coordinates":[47759,34048],"properties":{"id":"179","lon":-108.570201,"city":"Grand Junction","province":null,"country":"USA","lat":39.064821357,"state":"CO"}},
{"type":"Point","coordinates":[74160,44008],"properties":{"id":"180","lon":-85.679103676,"city":"Grand Rapids","province":null,"country":"USA","lat":42.956387353,"state":"MI"}},
{"type":"Point","coordinates":[77926,23279],"properties":{"id":"181","lon":-82.414129414,"city":"Greenville","province":null,"country":"USA","lat":34.857033746,"state":"SC"}},
{"type":"Point","coordinates":[84311,37111],"properties":{"id":"182","lon":-76.878356916,"city":"Harrisburg","province":null,"country":"USA","lat":40.26144161,"state":"PA"}},
{"type":"Point","coordinates":[62987,10253],"properties":{"id":"183","lon":-95.366921485,"city":"Houston","province":null,"country":"USA","lat":29.767278159,"state":"TX"}},
{"type":"Point","coordinates":[73605,35833],"properties":{"id":"184","lon":-86.160212317,"city":"Indianapolis","province":null,"country":"USA","lat":39.761999779,"state":"IN"}},
{"type":"Point","coordinates":[68957,16736],"properties":{"id":"185","lon":-90.190468906,"city":"Jackson","province":null,"country":"USA","lat":32.300582084,"state":"MS"}},
{"type":"Point","coordinates":[78721,11787],"properties":{"id":"186","lon":-81.72485707,"city":"Jacksonville","province":null,"country":"USA","lat":30.366765289,"state":"FL"}},
{"type":"Point","coordinates":[66674,32805],"properties":{"id":"187","lon":-92.170183458,"city":"Jefferson City","province":null,"country":"USA","lat":38.579111234,"state":"MO"}},
{"type":"Point","coordinates":[74271,42316],"properties":{"id":"188","lon":-85.583227447,"city":"Kalamazoo","province":null,"country":"USA","lat":42.295303705,"state":"MI"}},
{"type":"Point","coordinates":[63890,34103],"properties":{"id":"189","lon":-94.584364162,"city":"Kansas City","province":null,"country":"USA","lat":39.086399755,"state":"MO"}},
{"type":"Point","coordinates":[32534,42138],"properties":{"id":"190","lon":-121.77088926,"city":"Klamath Falls","province":null,"country":"USA","lat":42.225860497,"state":"OR"}},
{"type":"Point","coordinates":[36611,21230],"properties":{"id":"191","lon":-118.23642506,"city":"Los Angeles","province":null,"country":"USA","lat":34.056279013,"state":"CA"}},
{"type":"Point","coordinates":[66853,11431],"properties":{"id":"192","lon":-92.014708493,"city":"Lafayette","province":null,"country":"USA","lat":30.227486538,"state":"LA"}},
{"type":"Point","coordinates":[61437,38527],"properties":{"id":"193","lon":-96.710916181,"city":"Lincoln","province":null,"country":"USA","lat":40.814633267,"state":"NE"}},
{"type":"Point","coordinates":[75528,43401],"properties":{"id":"194","lon":-84.493175194,"city":"East Lansing","province":null,"country":"USA","lat":42.719024975,"state":"MI"}},
{"type":"Point","coordinates":[66539,23006],"properties":{"id":"195","lon":-92.286789682,"city":"Little Rock","province":null,"country":"USA","lat":34.750318759,"state":"AR"}},
{"type":"Point","coordinates":[81682,29805],"properties":{"id":"196","lon":-79.157792651,"city":"Lynchburg","province":null,"country":"USA","lat":37.406815721,"state":"VA"}},
{"type":"Point","coordinates":[69109,23985],"properties":{"id":"197","lon":-90.059178935,"city":"Memphis","province":null,"country":"USA","lat":35.132844906,"state":"TN"}},
{"type":"Point","coordinates":[80412,227],"properties":{"id":"198","lon":-80.258209902,"city":"Miami","province":null,"country":"USA","lat":25.849818085,"state":"FL"}},
{"type":"Point","coordinates":[71580,44207],"properties":{"id":"199","lon":-87.91621567,"city":"Milwaukee","province":null,"country":"USA","lat":43.034069586,"state":"WI"}},
{"type":"Point","coordinates":[56146,57519],"properties":{"id":"200","lon":-101.29829139,"city":"Minot","province":null,"country":"USA","lat":48.235640508,"state":"ND"}},
{"type":"Point","coordinates":[65618,49104],"properties":{"id":"201","lon":-93.085758251,"city":"St Paul","province":null,"country":"USA","lat":44.947484987,"state":"MN"}},
{"type":"Point","coordinates":[32113,31373],"properties":{"id":"202","lon":-122.13625543,"city":"Martinez","province":null,"country":"USA","lat":38.019642224,"state":"CA"}},
{"type":"Point","coordinates":[88869,39766],"properties":{"id":"203","lon":-72.92583781,"city":"New Haven","province":null,"country":"USA","lat":41.298774052,"state":"CT"}},
{"type":"Point","coordinates":[87441,38321],"properties":{"id":"204","lon":-74.16445503,"city":"Newark","province":null,"country":"USA","lat":40.734204693,"state":"NJ"}},
{"type":"Point","coordinates":[87640,38361],"properties":{"id":"205","lon":-73.991705069,"city":"New York","province":null,"country":"USA","lat":40.749898073,"state":"NY"}},
{"type":"Point","coordinates":[32042,30689],"properties":{"id":"206","lon":-122.19758167,"city":"Oakland","province":null,"country":"USA","lat":37.752070089,"state":"CA"}},
{"type":"Point","coordinates":[60513,24838],"properties":{"id":"207","lon":-97.512476,"city":"Oklahoma City","province":null,"country":"USA","lat":35.465936904,"state":"OK"}},
{"type":"Point","coordinates":[80718,37581],"properties":{"id":"208","lon":-79.993038712,"city":"Pittsburgh","province":null,"country":"USA","lat":40.44505416,"state":"PA"}},
{"type":"Point","coordinates":[86266,36326],"properties":{"id":"209","lon":-75.182816049,"city":"Philadelphia","province":null,"country":"USA","lat":39.954636023,"state":"PA"}},
{"type":"Point","coordinates":[91908,45788],"properties":{"id":"210","lon":-70.290537156,"city":"Portland","province":null,"country":"USA","lat":43.651996438,"state":"ME"}},
{"type":"Point","coordinates":[35633,52395],"properties":{"id":"211","lon":-119.08462737,"city":"Pasco","province":null,"country":"USA","lat":46.233557508,"state":"WA"}},
{"type":"Point","coordinates":[83676,29382],"properties":{"id":"212","lon":-77.428565542,"city":"Petersburg","province":null,"country":"USA","lat":37.241642893,"state":"VA"}},
{"type":"Point","coordinates":[90610,41114],"properties":{"id":"213","lon":-71.416003151,"city":"Providence","province":null,"country":"USA","lat":41.825679298,"state":"RI"}},
{"type":"Point","coordinates":[82273,25625],"properties":{"id":"214","lon":-78.644725267,"city":"Raleigh","province":null,"country":"USA","lat":35.773527159,"state":"NC"}},
{"type":"Point","coordinates":[34795,35236],"properties":{"id":"215","lon":-119.81104096,"city":"Reno","province":null,"country":"USA","lat":39.528953081,"state":"NV"}},
{"type":"Point","coordinates":[83597,30336],"properties":{"id":"216","lon":-77.496801776,"city":"Richmond","province":null,"country":"USA","lat":37.614360676,"state":"VA"}},
{"type":"Point","coordinates":[59399,9362],"properties":{"id":"217","lon":-98.478148281,"city":"San Antonio","province":null,"country":"USA","lat":29.419277449,"state":"TX"}},
{"type":"Point","coordinates":[34933,22146],"properties":{"id":"218","lon":-119.69097973,"city":"Santa Barbara","province":null,"country":"USA","lat":34.414088085,"state":"CA"}},
{"type":"Point","coordinates":[43916,38392],"properties":{"id":"219","lon":-111.90254775,"city":"Salt Lake City","province":null,"country":"USA","lat":40.762060443,"state":"UT"}},
{"type":"Point","coordinates":[31087,49065],"properties":{"id":"220","lon":-123.02591773,"city":"Salem","province":null,"country":"USA","lat":44.932183941,"state":"OR"}},
{"type":"Point","coordinates":[37680,21351],"properties":{"id":"221","lon":-117.30962152,"city":"San Bernardino","province":null,"country":"USA","lat":34.103751488,"state":"CA"}},
{"type":"Point","coordinates":[32667,27943],"properties":{"id":"222","lon":-121.65601054,"city":"Salinas","province":null,"country":"USA","lat":36.679427541,"state":"CA"}},
{"type":"Point","coordinates":[73457,40739],"properties":{"id":"223","lon":-86.288911038,"city":"South Bend","province":null,"country":"USA","lat":41.678946191,"state":"IN"}},
{"type":"Point","coordinates":[89253,41831],"properties":{"id":"224","lon":-72.593294135,"city":"Springfield","province":null,"country":"USA","lat":42.105806137,"state":"MA"}},
{"type":"Point","coordinates":[69579,35934],"properties":{"id":"225","lon":-89.651489027,"city":"Springfield","province":null,"country":"USA","lat":39.801625565,"state":"IL"}},
{"type":"Point","coordinates":[37560,56038],"properties":{"id":"226","lon":-117.4132715,"city":"Spokane","province":null,"country":"USA","lat":47.656947107,"state":"WA"}},
{"type":"Point","coordinates":[68940,32919],"properties":{"id":"227","lon":-90.205152652,"city":"St Louis","province":null,"country":"USA","lat":38.623445034,"state":"MO"}},
{"type":"Point","coordinates":[85148,44340],"properties":{"id":"228","lon":-76.15194333,"city":"Syracuse","province":null,"country":"USA","lat":43.086250075,"state":"NY"}},
{"type":"Point","coordinates":[31787,54976],"properties":{"id":"229","lon":-122.41870162,"city":"Tacoma","province":null,"country":"USA","lat":47.241857196,"state":"WA"}},
{"type":"Point","coordinates":[76626,40634],"properties":{"id":"230","lon":-83.541322909,"city":"Toledo","province":null,"country":"USA","lat":41.638143402,"state":"OH"}},
{"type":"Point","coordinates":[62643,34014],"properties":{"id":"231","lon":-95.664915168,"city":"Topeka","province":null,"country":"USA","lat":39.051481983,"state":"KS"}},
{"type":"Point","coordinates":[77883,5608],"properties":{"id":"232","lon":-82.451270656,"city":"Tampa","province":null,"country":"USA","lat":27.952338719,"state":"FL"}},
{"type":"Point","coordinates":[86760,36999],"properties":{"id":"233","lon":-74.754396146,"city":"Trenton","province":null,"country":"USA","lat":40.217892479,"state":"NJ"}},
{"type":"Point","coordinates":[44996,16538],"properties":{"id":"234","lon":-110.96624296,"city":"Tucson","province":null,"country":"USA","lat":32.222899851,"state":"AZ"}},
{"type":"Point","coordinates":[64514,19601],"properties":{"id":"235","lon":-94.042793034,"city":"Texarkana","province":null,"country":"USA","lat":33.419912439,"state":"AR"}},
{"type":"Point","coordinates":[84163,33620],"properties":{"id":"236","lon":-77.006191887,"city":"Washington","province":null,"country":"USA","lat":38.897294521,"state":"DC"}},
{"type":"Point","coordinates":[34224,55436],"properties":{"id":"237","lon":-120.3059696,"city":"Wenatchee","province":null,"country":"USA","lat":47.421546402,"state":"WA"}},
{"type":"Point","coordinates":[40788,17814],"properties":{"id":"238","lon":-114.61472213,"city":"Yuma","province":null,"country":"USA","lat":32.721557013,"state":"AZ"}},
{"type":"Point","coordinates":[2608,99999],"properties":{"id":"239","lon":-147.71879715,"city":"Fairbanks","province":null,"country":"USA","lat":64.833744253,"state":"AK"}},
{"type":"Point","coordinates":[69066,10746],"properties":{"id":"240","lon":-90.096320177,"city":"New Orleans","province":null,"country":"USA","lat":29.959914403,"state":"LA"}},
{"type":"Point","coordinates":[64378,84471],"properties":{"id":"242","lon":-94.161126758,"city":"Churchill","province":"MB","country":"CAN","lat":58.766683403,"state":null}},
{"type":"Point","coordinates":[46481,58335],"properties":{"id":"244","lon":-109.678392,"city":"Havre","province":null,"country":"USA","lat":48.55421613,"state":"MT"}},
{"type":"Point","coordinates":[22640,73024],"properties":{"id":"245","lon":-130.34965232,"city":"Prince Rupert","province":"BC","country":"CAN","lat":54.293677664,"state":null}},
{"type":"Point","coordinates":[56211,71797],"properties":{"id":"249","lon":-101.24214766,"city":"The Pas","province":"MB","country":"CAN","lat":53.814244894,"state":null}},
{"type":"Point","coordinates":[99662,48317],"properties":{"id":"251","lon":-63.567972426,"city":"Halifax","province":"NS","country":"CAN","lat":44.639894732,"state":null}},
{"type":"Point","coordinates":[96073,56927],"properties":{"id":"252","lon":-66.680062972,"city":"Campbellton","province":"NB","country":"CAN","lat":48.004163148,"state":null}},
{"type":"Point","coordinates":[82693,25007],"properties":{"id":"253","lon":-78.281086599,"city":"Selma","province":null,"country":"USA","lat":35.532241436,"state":"NC"}},
{"type":"Point","coordinates":[71206,36739],"properties":{"id":"254","lon":-88.240985596,"city":"Champaign","province":null,"country":"USA","lat":40.116277841,"state":"IL"}},
{"type":"Point","coordinates":[25831,75463],"properties":{"id":"255","lon":-127.5830617,"city":"New Hazelton","province":"BC","country":"CAN","lat":55.246658187,"state":null}},
{"type":"Point","coordinates":[45920,33864],"properties":{"id":"258","lon":-110.16468314,"city":"Green River","province":null,"country":"USA","lat":38.992631807,"state":"UT"}},
{"type":"Point","coordinates":[49198,35285],"properties":{"id":"259","lon":-107.32294628,"city":"Glenwood Springs","province":null,"country":"USA","lat":39.548177472,"state":"CO"}},
{"type":"Point","coordinates":[91599,54289],"properties":{"id":"260","lon":-70.559163345,"city":"Montmagny","province":"QC","country":"CAN","lat":46.973500392,"state":null}},
{"type":"Point","coordinates":[37193,38923],"properties":{"id":"261","lon":-117.73199518,"city":"Winnemucca","province":null,"country":"USA","lat":40.969605399,"state":"NV"}},
{"type":"Point","coordinates":[94331,58423],"properties":{"id":"262","lon":-68.189897631,"city":"Mont-Joli","province":"QC","country":"CAN","lat":48.588741566,"state":null}},
{"type":"Point","coordinates":[39475,38584],"properties":{"id":"263","lon":-115.75314437,"city":"Elko","province":null,"country":"USA","lat":40.836996334,"state":"NV"}},
{"type":"Point","coordinates":[59503,37936],"properties":{"id":"264","lon":-98.387454552,"city":"Hastings","province":null,"country":"USA","lat":40.583940576,"state":"NE"}},
{"type":"Point","coordinates":[70081,30617],"properties":{"id":"265","lon":-89.216159126,"city":"Carbondale","province":null,"country":"USA","lat":37.724214339,"state":"IL"}},
{"type":"Point","coordinates":[67601,36333],"properties":{"id":"266","lon":-91.36603239,"city":"Quincy","province":null,"country":"USA","lat":39.957382365,"state":"IL"}},
{"type":"Point","coordinates":[89235,47338],"properties":{"id":"267","lon":-72.608841632,"city":"Montpelier","province":null,"country":"USA","lat":44.257368585,"state":"VT"}},
{"type":"Point","coordinates":[87697,43647],"properties":{"id":"269","lon":-73.94247133,"city":"Schenectady","province":null,"country":"USA","lat":42.81514693,"state":"NY"}},
{"type":"Point","coordinates":[47564,25000],"properties":{"id":"271","lon":-108.73949596,"city":"Gallup","province":null,"country":"USA","lat":35.529495095,"state":"NM"}},
{"type":"Point","coordinates":[85677,48194],"properties":{"id":"272","lon":-75.693292184,"city":"Brockville","province":"ON","country":"CAN","lat":44.592029922,"state":null}},
{"type":"Point","coordinates":[69789,45518],"properties":{"id":"273","lon":-89.469237819,"city":"Portage","province":null,"country":"USA","lat":43.546458455,"state":"WI"}},
{"type":"Point","coordinates":[88804,45674],"properties":{"id":"274","lon":-72.981981547,"city":"Rutland","province":null,"country":"USA","lat":43.607270304,"state":"VT"}},
{"type":"Point","coordinates":[68757,38858],"properties":{"id":"275","lon":-90.364082616,"city":"Galesburg","province":null,"country":"USA","lat":40.944103655,"state":"IL"}},
{"type":"Point","coordinates":[72969,62495],"properties":{"id":"276","lon":-86.712148442,"city":"Greenstone","province":"ON","country":"CAN","lat":50.179658001,"state":null}},
{"type":"Point","coordinates":[89410,53990],"properties":{"id":"277","lon":-72.456821666,"city":"Lac-aux-Sables","province":"QC","country":"CAN","lat":46.856584708,"state":null}},
{"type":"Point","coordinates":[56922,36947],"properties":{"id":"278","lon":-100.6254303,"city":"McCook","province":null,"country":"USA","lat":40.197491085,"state":"NE"}},
{"type":"Point","coordinates":[88684,48754],"properties":{"id":"279","lon":-73.086495273,"city":"St Albans","province":null,"country":"USA","lat":44.810952578,"state":"VT"}},
{"type":"Point","coordinates":[51138,57149],"properties":{"id":"280","lon":-105.64036166,"city":"Wolf Point","province":null,"country":"USA","lat":48.090869074,"state":"MT"}},
{"type":"Point","coordinates":[64834,39097],"properties":{"id":"281","lon":-93.765529347,"city":"Osceola","province":null,"country":"USA","lat":41.037479269,"state":"IA"}},
{"type":"Point","coordinates":[54713,66996],"properties":{"id":"282","lon":-102.54122736,"city":"Sturgis","province":"SK","country":"CAN","lat":51.938493606,"state":null}},
{"type":"Point","coordinates":[60030,31466],"properties":{"id":"283","lon":-97.930530905,"city":"Hutchinson","province":null,"country":"USA","lat":38.055736999,"state":"KS"}},
{"type":"Point","coordinates":[57625,30690],"properties":{"id":"284","lon":-100.01648668,"city":"Dodge City","province":null,"country":"USA","lat":37.752462423,"state":"KS"}},
{"type":"Point","coordinates":[56603,9219],"properties":{"id":"285","lon":-100.90183023,"city":"Del Rio","province":null,"country":"USA","lat":29.363173614,"state":"TX"}},
{"type":"Point","coordinates":[60959,21526],"properties":{"id":"286","lon":-97.125516087,"city":"Ardmore","province":null,"country":"USA","lat":34.172017693,"state":"OK"}},
{"type":"Point","coordinates":[81105,55397],"properties":{"id":"287","lon":-79.657903787,"city":"Coleman","province":"ON","country":"CAN","lat":47.406245356,"state":null}},
{"type":"Point","coordinates":[52526,28510],"properties":{"id":"288","lon":-104.43715818,"city":"Raton","province":null,"country":"USA","lat":36.900704204,"state":"NM"}},
{"type":"Point","coordinates":[64326,78679],"properties":{"id":"289","lon":-94.206041747,"city":"Gillam","province":"MB","country":"CAN","lat":56.50330562,"state":null}},
{"type":"Point","coordinates":[54624,31552],"properties":{"id":"290","lon":-102.6181011,"city":"Lamar","province":null,"country":"USA","lat":38.089477767,"state":"CO"}},
{"type":"Point","coordinates":[53422,11762],"properties":{"id":"291","lon":-103.66064711,"city":"Alpine","province":null,"country":"USA","lat":30.356956926,"state":"TX"}},
{"type":"Point","coordinates":[80667,50136],"properties":{"id":"292","lon":-80.037089952,"city":"Parry Sound","province":"ON","country":"CAN","lat":45.350804862,"state":null}},
{"type":"Point","coordinates":[84804,28814],"properties":{"id":"293","lon":-76.450800763,"city":"Newport News","province":null,"country":"USA","lat":37.01958156,"state":"VA"}},
{"type":"Point","coordinates":[77241,42392],"properties":{"id":"294","lon":-83.00838928,"city":"Windsor","province":"ON","country":"CAN","lat":42.325121128,"state":null}},
{"type":"Point","coordinates":[82142,35547],"properties":{"id":"295","lon":-78.758740241,"city":"Cumberland","province":null,"country":"USA","lat":39.650576779,"state":"MD"}},
{"type":"Point","coordinates":[49866,67432],"properties":{"id":"296","lon":-106.74337016,"city":"Saskatoon","province":"SK","country":"CAN","lat":52.108766783,"state":null}},
{"type":"Point","coordinates":[40799,23235],"properties":{"id":"297","lon":-114.60522088,"city":"Needles","province":null,"country":"USA","lat":34.839771027,"state":"CA"}},
{"type":"Point","coordinates":[85015,28230],"properties":{"id":"299","lon":-76.267685804,"city":"Chesapeake City","province":null,"country":"USA","lat":36.791635211,"state":"VA"}},
{"type":"Point","coordinates":[75683,53125],"properties":{"id":"302","lon":-84.359293974,"city":"Sault Ste Marie","province":"ON","country":"CAN","lat":46.518784696,"state":null}},
{"type":"Point","coordinates":[54406,64406],"properties":{"id":"308","lon":-102.8072623,"city":"Melville","province":"SK","country":"CAN","lat":50.926662906,"state":null}},
{"type":"Point","coordinates":[32131,72464],"properties":{"id":"312","lon":-122.121,"city":"Aleza Lake","province":"BC","country":"CAN","lat":54.075,"state":null}},
{"type":"Point","coordinates":[97310,57219],"properties":{"id":"314","lon":-65.6074,"city":"Caplan","province":"QC","country":"CAN","lat":48.1185,"state":null}},
{"type":"Point","coordinates":[96715,57188],"properties":{"id":"315","lon":-66.1234,"city":"Carleton","province":"QC","country":"CAN","lat":48.1061,"state":null}},
{"type":"Point","coordinates":[87367,49946],"properties":{"id":"316","lon":-74.2284,"city":"Coteau","province":"QC","country":"CAN","lat":45.2766,"state":null}},
{"type":"Point","coordinates":[40333,71234],"properties":{"id":"317","lon":-115.009,"city":"Evansburg","province":"AB","country":"CAN","lat":53.5945,"state":null}},
{"type":"Point","coordinates":[89039,55540],"properties":{"id":"318","lon":-72.7781,"city":"Fitzpatrick","province":"QC","country":"CAN","lat":47.4623,"state":null}},
{"type":"Point","coordinates":[80801,45793],"properties":{"id":"319","lon":-79.9213,"city":"Georgetown","province":"ON","country":"CAN","lat":43.6538,"state":null}},
{"type":"Point","coordinates":[89491,54014],"properties":{"id":"320","lon":-72.3868,"city":"Hervey","province":"QC","country":"CAN","lat":46.866,"state":null}},
{"type":"Point","coordinates":[84223,47326],"properties":{"id":"321","lon":-76.9545,"city":"Napanee","province":"ON","country":"CAN","lat":44.253,"state":null}},
{"type":"Point","coordinates":[90844,53890],"properties":{"id":"323","lon":-71.2133,"city":"Québec","province":"QC","country":"CAN","lat":46.8174,"state":null}},
{"type":"Point","coordinates":[78838,44004],"properties":{"id":"324","lon":-81.623,"city":"Strathroy","province":"ON","country":"CAN","lat":42.9548,"state":null}},
{"type":"Point","coordinates":[32541,60086],"properties":{"id":"325","lon":-121.76527,"city":"Kent","province":"BC","country":"CAN","lat":49.23844,"state":null}},
{"type":"Point","coordinates":[95201,58110],"properties":{"id":"327","lon":-67.43609,"city":"Amqui","province":"QC","country":"CAN","lat":48.46646,"state":null}},
{"type":"Point","coordinates":[80981,45878],"properties":{"id":"328","lon":-79.76485,"city":"Brampton","province":"ON","country":"CAN","lat":43.68687,"state":null}},
{"type":"Point","coordinates":[78197,42578],"properties":{"id":"329","lon":-82.178752,"city":"Chatham-Kent","province":"ON","country":"CAN","lat":42.397635,"state":null}},
{"type":"Point","coordinates":[89869,57994],"properties":{"id":"330","lon":-72.059223,"city":"Chambord","province":"QC","country":"CAN","lat":48.421288,"state":null}},
{"type":"Point","coordinates":[32321,59894],"properties":{"id":"331","lon":-121.95579,"city":"Chilliwack","province":"BC","country":"CAN","lat":49.16366,"state":null}},
{"type":"Point","coordinates":[84626,47289],"properties":{"id":"333","lon":-76.60442,"city":"Kingston","province":"ON","country":"CAN","lat":44.23821,"state":null}},
{"type":"Point","coordinates":[42043,71195],"properties":{"id":"334","lon":-113.526917,"city":"Edmonton","province":"AB","country":"CAN","lat":53.579239,"state":null}},
{"type":"Point","coordinates":[81260,44596],"properties":{"id":"337","lon":-79.52366,"city":"Grimsby","province":"ON","country":"CAN","lat":43.18606,"state":null}},
{"type":"Point","coordinates":[80425,45513],"properties":{"id":"338","lon":-80.247338,"city":"Guelph","province":"ON","country":"CAN","lat":43.544355,"state":null}},
{"type":"Point","coordinates":[56837,65025],"properties":{"id":"339","lon":-100.69973,"city":"Grandview","province":"MB","country":"CAN","lat":51.16843,"state":null}},
{"type":"Point","coordinates":[26912,73298],"properties":{"id":"340","lon":-126.64609,"city":"Houston","province":"BC","country":"CAN","lat":54.40096,"state":null}},
{"type":"Point","coordinates":[87659,50222],"properties":{"id":"341","lon":-73.97489,"city":"Pincourt","province":"QC","country":"CAN","lat":45.38426,"state":null}},
{"type":"Point","coordinates":[89737,57604],"properties":{"id":"342","lon":-72.17306,"city":"Lac-Bouchette","province":"QC","country":"CAN","lat":48.26888,"state":null}},
{"type":"Point","coordinates":[89623,56049],"properties":{"id":"343","lon":-72.27177,"city":"Lac-Édouard","province":"QC","country":"CAN","lat":47.66129,"state":null}},
{"type":"Point","coordinates":[58151,64315],"properties":{"id":"344","lon":-99.56015,"city":"Ste Rose","province":"MB","country":"CAN","lat":50.8909,"state":null}},
{"type":"Point","coordinates":[31925,59808],"properties":{"id":"345","lon":-122.29974,"city":"Mission","province":"BC","country":"CAN","lat":49.12993,"state":null}},
{"type":"Point","coordinates":[95773,56852],"properties":{"id":"346","lon":-66.93986,"city":"Matapédia","province":"QC","country":"CAN","lat":47.97497,"state":null}},
{"type":"Point","coordinates":[88582,50718],"properties":{"id":"347","lon":-73.17463,"city":"Mont-St-Hilaire","province":"QC","country":"CAN","lat":45.578247,"state":null}},
{"type":"Point","coordinates":[84224,47325],"properties":{"id":"348","lon":-76.9537,"city":"Greater Napanee","province":"ON","country":"CAN","lat":44.252481,"state":null}},
{"type":"Point","coordinates":[81791,44398],"properties":{"id":"349","lon":-79.06272,"city":"Niagara Falls","province":"ON","country":"CAN","lat":43.10874,"state":null}},
{"type":"Point","coordinates":[81333,46834],"properties":{"id":"350","lon":-79.45968,"city":"Newmarket","province":"ON","country":"CAN","lat":44.0604,"state":null}},
{"type":"Point","coordinates":[81075,45286],"properties":{"id":"351","lon":-79.68406,"city":"Oakville","province":"ON","country":"CAN","lat":43.455881,"state":null}},
{"type":"Point","coordinates":[82676,46540],"properties":{"id":"354","lon":-78.29531,"city":"Port Hope","province":"ON","country":"CAN","lat":43.94569,"state":null}},
{"type":"Point","coordinates":[97175,56355],"properties":{"id":"355","lon":-65.72405,"city":"Petit-Rocher","province":"NB","country":"CAN","lat":47.78088,"state":null}},
{"type":"Point","coordinates":[81373,46360],"properties":{"id":"356","lon":-79.425244,"city":"Richmond Hill","province":"ON","country":"CAN","lat":43.875197,"state":null}},
{"type":"Point","coordinates":[97520,53664],"properties":{"id":"357","lon":-65.425092,"city":"Rogersville","province":"NB","country":"CAN","lat":46.729429,"state":null}},
{"type":"Point","coordinates":[93949,58068],"properties":{"id":"358","lon":-68.52166,"city":"Rimouski","province":"QC","country":"CAN","lat":48.45017,"state":null}},
{"type":"Point","coordinates":[81286,46263],"properties":{"id":"359","lon":-79.501038,"city":"Vaughan","province":"ON","country":"CAN","lat":43.83732,"state":null}},
{"type":"Point","coordinates":[66966,62285],"properties":{"id":"360","lon":-91.91668,"city":"Sioux Lookout","province":"ON","country":"CAN","lat":50.0976,"state":null}},
{"type":"Point","coordinates":[26301,74263],"properties":{"id":"361","lon":-127.17579,"city":"Smithers","province":"BC","country":"CAN","lat":54.77777,"state":null}},
{"type":"Point","coordinates":[88765,52829],"properties":{"id":"362","lon":-73.015923,"city":"St-Paulin","province":"QC","country":"CAN","lat":46.40318,"state":null}},
{"type":"Point","coordinates":[99123,50924],"properties":{"id":"363","lon":-64.03522,"city":"Cumberland","province":"NS","country":"CAN","lat":45.65874,"state":null}},
{"type":"Point","coordinates":[88351,50549],"properties":{"id":"364","lon":-73.3751,"city":"St-Bruno-de-Montarville","province":"QC","country":"CAN","lat":45.51233,"state":null}},
{"type":"Point","coordinates":[88308,50545],"properties":{"id":"365","lon":-73.4126,"city":"Longueuil","province":"QC","country":"CAN","lat":45.51063,"state":null}},
{"type":"Point","coordinates":[89286,53648],"properties":{"id":"366","lon":-72.564168,"city":"St-Tite","province":"QC","country":"CAN","lat":46.723035,"state":null}},
{"type":"Point","coordinates":[80975,44732],"properties":{"id":"367","lon":-79.77029,"city":"Hamilton","province":"ON","country":"CAN","lat":43.23914,"state":null}},
{"type":"Point","coordinates":[79585,45053],"properties":{"id":"368","lon":-80.97568,"city":"Stratford","province":"ON","country":"CAN","lat":43.36465,"state":null}},
{"type":"Point","coordinates":[26445,74058],"properties":{"id":"369","lon":-127.05063,"city":"Telkwa","province":"BC","country":"CAN","lat":54.69785,"state":null}},
{"type":"Point","coordinates":[55812,65629],"properties":{"id":"370","lon":-101.58797,"city":"Togo","province":"SK","country":"CAN","lat":51.40451,"state":null}},
{"type":"Point","coordinates":[93197,57242],"properties":{"id":"371","lon":-69.17327,"city":"Trois-Pistoles","province":"QC","country":"CAN","lat":48.12712,"state":null}},
{"type":"Point","coordinates":[99999,50167],"properties":{"id":"372","lon":-63.27562,"city":"Truro","province":"NS","country":"CAN","lat":45.36281,"state":null}},
{"type":"Point","coordinates":[86219,44386],"properties":{"id":"373","lon":-75.22345,"city":"Utica","province":null,"country":"USA","lat":43.10422,"state":"NY"}},
{"type":"Point","coordinates":[35424,69297],"properties":{"id":"374","lon":-119.26574,"city":"Valemount","province":"BC","country":"CAN","lat":52.83737,"state":null}},
{"type":"Point","coordinates":[45123,69298],"properties":{"id":"375","lon":-110.85634,"city":"Wainwright","province":"AB","country":"CAN","lat":52.83777,"state":null}},
{"type":"Point","coordinates":[51336,66314],"properties":{"id":"376","lon":-105.46861,"city":"Watrous","province":"SK","country":"CAN","lat":51.67189,"state":null}},
{"type":"Point","coordinates":[79446,38801],"properties":{"id":"377","lon":-81.09581,"city":"Alliance","province":null,"country":"USA","lat":40.92179,"state":"OH"}},
{"type":"Point","coordinates":[79967,30617],"properties":{"id":"378","lon":-80.64465,"city":"Alderson","province":null,"country":"USA","lat":37.72424,"state":"WV"}},
{"type":"Point","coordinates":[69021,33638],"properties":{"id":"379","lon":-90.13495,"city":"Alton","province":null,"country":"USA","lat":38.90449,"state":"IL"}},
{"type":"Point","coordinates":[89346,42520],"properties":{"id":"380","lon":-72.51193,"city":"Amherst","province":null,"country":"USA","lat":42.37486,"state":"MA"}},
{"type":"Point","coordinates":[87389,43985],"properties":{"id":"381","lon":-74.20953,"city":"Amsterdam","province":null,"country":"USA","lat":42.94748,"state":"NY"}},
{"type":"Point","coordinates":[33329,33637],"properties":{"id":"382","lon":-121.08203,"city":"Auburn","province":null,"country":"USA","lat":38.90418,"state":"CA"}},
{"type":"Point","coordinates":[83615,30707],"properties":{"id":"383","lon":-77.48167,"city":"Ashland","province":null,"country":"USA","lat":37.75923,"state":"VA"}},
{"type":"Point","coordinates":[73661,42364],"properties":{"id":"384","lon":-86.11187,"city":"Bangor","province":null,"country":"USA","lat":42.31419,"state":"MI"}},
{"type":"Point","coordinates":[31682,58760],"properties":{"id":"385","lon":-122.50989,"city":"Bellingham","province":null,"country":"USA","lat":48.72049,"state":"WA"}},
{"type":"Point","coordinates":[32883,51069],"properties":{"id":"386","lon":-121.46909,"city":"Bingen-White Salmon","province":null,"country":"USA","lat":45.71538,"state":"WA"}},
{"type":"Point","coordinates":[70349,37743],"properties":{"id":"387","lon":-88.98404,"city":"Normal","province":null,"country":"USA","lat":40.50835,"state":"IL"}},
{"type":"Point","coordinates":[89302,43707],"properties":{"id":"388","lon":-72.55035,"city":"Brattleboro","province":null,"country":"USA","lat":42.8387,"state":"VT"}},
{"type":"Point","coordinates":[68667,14889],"properties":{"id":"389","lon":-90.44212,"city":"Brookhaven","province":null,"country":"USA","lat":31.57876,"state":"MS"}},
{"type":"Point","coordinates":[67906,38504],"properties":{"id":"390","lon":-91.10198,"city":"Burlington","province":null,"country":"USA","lat":40.80594,"state":"IA"}},
{"type":"Point","coordinates":[42638,58281],"properties":{"id":"391","lon":-113.01084,"city":"Browning","province":null,"country":"USA","lat":48.5333,"state":"MT"}},
{"type":"Point","coordinates":[74729,42372],"properties":{"id":"392","lon":-85.18569,"city":"Battle Creek","province":null,"country":"USA","lat":42.31697,"state":"MI"}},
{"type":"Point","coordinates":[82179,43881],"properties":{"id":"393","lon":-78.72661,"city":"Depew","province":null,"country":"USA","lat":42.90692,"state":"NY"}},
{"type":"Point","coordinates":[36473,21582],"properties":{"id":"394","lon":-118.35591,"city":"Burbank","province":null,"country":"USA","lat":34.19383,"state":"CA"}},
{"type":"Point","coordinates":[75459,40230],"properties":{"id":"395","lon":-84.55275,"city":"Bryan","province":null,"country":"USA","lat":41.48035,"state":"OH"}},
{"type":"Point","coordinates":[79988,21719],"properties":{"id":"396","lon":-80.62616,"city":"Camden","province":null,"country":"USA","lat":34.24735,"state":"SC"}},
{"type":"Point","coordinates":[70316,44991],"properties":{"id":"397","lon":-89.01248,"city":"Columbus","province":null,"country":"USA","lat":43.34067,"state":"WI"}},
{"type":"Point","coordinates":[89499,45063],"properties":{"id":"398","lon":-72.3793,"city":"Claremont","province":null,"country":"USA","lat":43.36879,"state":"NH"}},
{"type":"Point","coordinates":[80899,30841],"properties":{"id":"399","lon":-79.83649,"city":"Clifton Forge","province":null,"country":"USA","lat":37.81177,"state":"VA"}},
{"type":"Point","coordinates":[83025,32533],"properties":{"id":"400","lon":-77.99304,"city":"Culpepper","province":null,"country":"USA","lat":38.47292,"state":"VA"}},
{"type":"Point","coordinates":[35692,21640],"properties":{"id":"401","lon":-119.03311,"city":"Camarillo","province":null,"country":"USA","lat":34.21647,"state":"CA"}},
{"type":"Point","coordinates":[85530,36405],"properties":{"id":"403","lon":-75.82066,"city":"Coatesville","province":null,"country":"USA","lat":39.98562,"state":"PA"}},
{"type":"Point","coordinates":[81180,36488],"properties":{"id":"404","lon":-79.5926,"city":"Connellsville","province":null,"country":"USA","lat":40.0181,"state":"PA"}},
{"type":"Point","coordinates":[35129,22099],"properties":{"id":"405","lon":-119.52132,"city":"Carpinteria","province":null,"country":"USA","lat":34.396,"state":"CA"}},
{"type":"Point","coordinates":[64147,39147],"properties":{"id":"406","lon":-94.3612,"city":"Creston","province":null,"country":"USA","lat":41.05708,"state":"IA"}},
{"type":"Point","coordinates":[86534,36626],"properties":{"id":"408","lon":-74.95081,"city":"Cornwells Heights","province":null,"country":"USA","lat":40.07189,"state":"PA"}},
{"type":"Point","coordinates":[82118,25661],"properties":{"id":"409","lon":-78.77968,"city":"Cary","province":null,"country":"USA","lat":35.78771,"state":"NC"}},
{"type":"Point","coordinates":[81420,27698],"properties":{"id":"410","lon":-79.38432,"city":"Danville","province":null,"country":"USA","lat":36.5837,"state":"VA"}},
{"type":"Point","coordinates":[77018,42361],"properties":{"id":"411","lon":-83.20118,"city":"Dearborn","province":null,"country":"USA","lat":42.31305,"state":"MI"}},
{"type":"Point","coordinates":[80570,1425],"properties":{"id":"412","lon":-80.12146,"city":"Deerfield Beach","province":null,"country":"USA","lat":26.3178,"state":"FL"}},
{"type":"Point","coordinates":[62435,53895],"properties":{"id":"413","lon":-95.84558,"city":"Detroit Lakes","province":null,"country":"USA","lat":46.81949,"state":"MN"}},
{"type":"Point","coordinates":[78292,39948],"properties":{"id":"414","lon":-82.09701,"city":"Elyria","province":null,"country":"USA","lat":41.37005,"state":"OH"}},
{"type":"Point","coordinates":[85660,36448],"properties":{"id":"415","lon":-75.70812,"city":"Downingtown","province":null,"country":"USA","lat":40.00254,"state":"PA"}},
{"type":"Point","coordinates":[76117,43889],"properties":{"id":"416","lon":-83.98244,"city":"Durand","province":null,"country":"USA","lat":42.90978,"state":"MI"}},
{"type":"Point","coordinates":[31959,39541],"properties":{"id":"417","lon":-122.26997,"city":"Dunsmuir","province":null,"country":"USA","lat":41.21117,"state":"CA"}},
{"type":"Point","coordinates":[70990,39237],"properties":{"id":"418","lon":-88.42832,"city":"Dwight","province":null,"country":"USA","lat":41.09205,"state":"IL"}},
{"type":"Point","coordinates":[72039,40277],"properties":{"id":"419","lon":-87.51819,"city":"Dyer","province":null,"country":"USA","lat":41.49853,"state":"IN"}},
{"type":"Point","coordinates":[31828,56433],"properties":{"id":"420","lon":-122.38307,"city":"Edmonds","province":null,"country":"USA","lat":47.8113,"state":"WA"}},
{"type":"Point","coordinates":[70854,34187],"properties":{"id":"421","lon":-88.54572,"city":"Effingham","province":null,"country":"USA","lat":39.11916,"state":"IL"}},
{"type":"Point","coordinates":[84615,36819],"properties":{"id":"422","lon":-76.61458,"city":"Elizabethtown","province":null,"country":"USA","lat":40.1474,"state":"PA"}},
{"type":"Point","coordinates":[35097,55177],"properties":{"id":"423","lon":-119.54864,"city":"Ephrata","province":null,"country":"USA","lat":47.32059,"state":"WA"}},
{"type":"Point","coordinates":[88656,47940],"properties":{"id":"424","lon":-73.11045,"city":"Essex Junction","province":null,"country":"USA","lat":44.49257,"state":"VT"}},
{"type":"Point","coordinates":[32022,56863],"properties":{"id":"425","lon":-122.21562,"city":"Everett","province":null,"country":"USA","lat":47.97928,"state":"WA"}},
{"type":"Point","coordinates":[91138,44070],"properties":{"id":"426","lon":-70.959,"city":"Exeter","province":null,"country":"USA","lat":42.98063,"state":"NH"}},
{"type":"Point","coordinates":[85758,36493],"properties":{"id":"427","lon":-75.6233,"city":"Exton","province":null,"country":"USA","lat":40.01995,"state":"PA"}},
{"type":"Point","coordinates":[83643,32087],"properties":{"id":"428","lon":-77.45693,"city":"Fredericksburg","province":null,"country":"USA","lat":38.29856,"state":"VA"}},
{"type":"Point","coordinates":[76495,44154],"properties":{"id":"430","lon":-83.65484,"city":"Flint","province":null,"country":"USA","lat":43.01363,"state":"MI"}},
{"type":"Point","coordinates":[32263,30192],"properties":{"id":"432","lon":-122.00638,"city":"Centerville","province":null,"country":"USA","lat":37.5582,"state":"CA"}},
{"type":"Point","coordinates":[80514,917],"properties":{"id":"433","lon":-80.17019,"city":"Ft Lauderdale","province":null,"country":"USA","lat":26.11961,"state":"FL"}},
{"type":"Point","coordinates":[70459,27542],"properties":{"id":"434","lon":-88.88801,"city":"Fulton","province":null,"country":"USA","lat":36.52252,"state":"KY"}},
{"type":"Point","coordinates":[36973,20750],"properties":{"id":"435","lon":-117.92284,"city":"Fullerton","province":null,"country":"USA","lat":33.86895,"state":"CA"}},
{"type":"Point","coordinates":[79368,24332],"properties":{"id":"436","lon":-81.16398,"city":"Gastonia","province":null,"country":"USA","lat":35.26836,"state":"NC"}},
{"type":"Point","coordinates":[36586,21402],"properties":{"id":"437","lon":-118.25796,"city":"Glendale","province":null,"country":"USA","lat":34.12364,"state":"CA"}},
{"type":"Point","coordinates":[71490,38392],"properties":{"id":"439","lon":-87.99477,"city":"Gilman","province":null,"country":"USA","lat":40.76208,"state":"IL"}},
{"type":"Point","coordinates":[71708,41750],"properties":{"id":"440","lon":-87.80534,"city":"Glenview","province":null,"country":"USA","lat":42.0742,"state":"IL"}},
{"type":"Point","coordinates":[81232,37222],"properties":{"id":"441","lon":-79.54728,"city":"Greensburg","province":null,"country":"USA","lat":40.30485,"state":"PA"}},
{"type":"Point","coordinates":[76297,21812],"properties":{"id":"442","lon":-83.82668,"city":"Gainesville","province":null,"country":"USA","lat":34.28372,"state":"GA"}},
{"type":"Point","coordinates":[50799,36656],"properties":{"id":"443","lon":-105.93484,"city":"Granby","province":null,"country":"USA","lat":40.08392,"state":"CO"}},
{"type":"Point","coordinates":[33916,23549],"properties":{"id":"444","lon":-120.57295,"city":"Guadalupe","province":null,"country":"USA","lat":34.96261,"state":"CA"}},
{"type":"Point","coordinates":[33852,23958],"properties":{"id":"445","lon":-120.62811,"city":"Grover Beach","province":null,"country":"USA","lat":35.12207,"state":"CA"}},
{"type":"Point","coordinates":[68974,19852],"properties":{"id":"446","lon":-90.17609,"city":"Greenwood","province":null,"country":"USA","lat":33.51774,"state":"MS"}},
{"type":"Point","coordinates":[32157,30470],"properties":{"id":"447","lon":-122.09779,"city":"Hayward","province":null,"country":"USA","lat":37.66686,"state":"CA"}},
{"type":"Point","coordinates":[68722,15616],"properties":{"id":"448","lon":-90.39428,"city":"Hazelhurst","province":null,"country":"USA","lat":31.8629,"state":"MS"}},
{"type":"Point","coordinates":[70000,14244],"properties":{"id":"449","lon":-89.28619,"city":"Hattiesburg","province":null,"country":"USA","lat":31.32672,"state":"MS"}},
{"type":"Point","coordinates":[89150,40966],"properties":{"id":"450","lon":-72.68212,"city":"Hartford","province":null,"country":"USA","lat":41.7678,"state":"CT"}},
{"type":"Point","coordinates":[83003,37679],"properties":{"id":"451","lon":-78.01183,"city":"Huntingdon","province":null,"country":"USA","lat":40.48349,"state":"PA"}},
{"type":"Point","coordinates":[90991,43538],"properties":{"id":"452","lon":-71.08595,"city":"Haverhill","province":null,"country":"USA","lat":42.77271,"state":"MA"}},
{"type":"Point","coordinates":[72050,40775],"properties":{"id":"453","lon":-87.50874,"city":"Hammond","province":null,"country":"USA","lat":41.69308,"state":"IN"}},
{"type":"Point","coordinates":[71866,40440],"properties":{"id":"454","lon":-87.66851,"city":"Homewood","province":null,"country":"USA","lat":41.56235,"state":"IL"}},
{"type":"Point","coordinates":[34980,27039],"properties":{"id":"455","lon":-119.65078,"city":"Hanford","province":null,"country":"USA","lat":36.32621,"state":"CA"}},
{"type":"Point","coordinates":[80516,639],"properties":{"id":"456","lon":-80.16854,"city":"Hollywood","province":null,"country":"USA","lat":26.01069,"state":"FL"}},
{"type":"Point","coordinates":[73677,43580],"properties":{"id":"457","lon":-86.09778,"city":"Holland","province":null,"country":"USA","lat":42.78931,"state":"MI"}},
{"type":"Point","coordinates":[65034,20239],"properties":{"id":"458","lon":-93.592334,"city":"Hope","province":null,"country":"USA","lat":33.669005,"state":"AR"}},
{"type":"Point","coordinates":[80703,26096],"properties":{"id":"459","lon":-80.00584,"city":"High Point","province":null,"country":"USA","lat":35.95751,"state":"NC"}},
{"type":"Point","coordinates":[87863,42208],"properties":{"id":"460","lon":-73.79844,"city":"Hudson","province":null,"country":"USA","lat":42.25308,"state":"NY"}},
{"type":"Point","coordinates":[64068,34105],"properties":{"id":"461","lon":-94.4293,"city":"Independence","province":null,"country":"USA","lat":39.08698,"state":"MO"}},
{"type":"Point","coordinates":[37161,20253],"properties":{"id":"462","lon":-117.75919,"city":"Irvine","province":null,"country":"USA","lat":33.67477,"state":"CA"}},
{"type":"Point","coordinates":[78539,14959],"properties":{"id":"463","lon":-81.8822,"city":"Jesup","province":null,"country":"USA","lat":31.60591,"state":"GA"}},
{"type":"Point","coordinates":[81953,37287],"properties":{"id":"464","lon":-78.92242,"city":"Johnstown","province":null,"country":"USA","lat":40.3301,"state":"PA"}},
{"type":"Point","coordinates":[75635,42195],"properties":{"id":"465","lon":-84.40029,"city":"Jackson","province":null,"country":"USA","lat":42.24805,"state":"MI"}},
{"type":"Point","coordinates":[79993,24928],"properties":{"id":"466","lon":-80.62181,"city":"Kannapolis","province":null,"country":"USA","lat":35.50127,"state":"NC"}},
{"type":"Point","coordinates":[31219,52163],"properties":{"id":"467","lon":-122.91177,"city":"Kelso","province":null,"country":"USA","lat":46.14262,"state":"WA"}},
{"type":"Point","coordinates":[90442,40240],"properties":{"id":"468","lon":-71.56229,"city":"West Kingston","province":null,"country":"USA","lat":41.48394,"state":"RI"}},
{"type":"Point","coordinates":[79090,6480],"properties":{"id":"469","lon":-81.40487,"city":"Kissimmee","province":null,"country":"USA","lat":28.29327,"state":"FL"}},
{"type":"Point","coordinates":[71638,39306],"properties":{"id":"470","lon":-87.86576,"city":"Kankakee","province":null,"country":"USA","lat":41.11913,"state":"IL"}},
{"type":"Point","coordinates":[41437,24127],"properties":{"id":"471","lon":-114.05207,"city":"Kingman","province":null,"country":"USA","lat":35.18836,"state":"AZ"}},
{"type":"Point","coordinates":[80907,20227],"properties":{"id":"472","lon":-79.82906,"city":"Kingstree","province":null,"country":"USA","lat":33.66438,"state":"SC"}},
{"type":"Point","coordinates":[68707,32810],"properties":{"id":"473","lon":-90.40759,"city":"Kirkwood","province":null,"country":"USA","lat":38.58088,"state":"MO"}},
{"type":"Point","coordinates":[81419,37256],"properties":{"id":"474","lon":-79.38522,"city":"Latrobe","province":null,"country":"USA","lat":40.31834,"state":"PA"}},
{"type":"Point","coordinates":[72758,37519],"properties":{"id":"475","lon":-86.89503,"city":"Lafayette","province":null,"country":"USA","lat":40.42109,"state":"IN"}},
{"type":"Point","coordinates":[53558,31293],"properties":{"id":"476","lon":-103.5425,"city":"La Junta","province":null,"country":"USA","lat":37.98807,"state":"CO"}},
{"type":"Point","coordinates":[78459,5847],"properties":{"id":"477","lon":-81.95161,"city":"Lakeland","province":null,"country":"USA","lat":28.04565,"state":"FL"}},
{"type":"Point","coordinates":[66311,36522],"properties":{"id":"478","lon":-92.48531,"city":"La Plata","province":null,"country":"USA","lat":40.03141,"state":"MO"}},
{"type":"Point","coordinates":[70183,15180],"properties":{"id":"479","lon":-89.12784,"city":"Laurel","province":null,"country":"USA","lat":31.69239,"state":"MS"}},
{"type":"Point","coordinates":[65469,11458],"properties":{"id":"480","lon":-93.215,"city":"Lake Charles","province":null,"country":"USA","lat":30.23809,"state":"LA"}},
{"type":"Point","coordinates":[47602,16864],"properties":{"id":"481","lon":-108.70632,"city":"Lordsburg","province":null,"country":"USA","lat":32.35059,"state":"NM"}},
{"type":"Point","coordinates":[64128,33660],"properties":{"id":"482","lon":-94.37765,"city":"Lees Summit","province":null,"country":"USA","lat":38.91295,"state":"MO"}},
{"type":"Point","coordinates":[39711,57927],"properties":{"id":"483","lon":-115.54862,"city":"Libby","province":null,"country":"USA","lat":48.39515,"state":"MT"}},
{"type":"Point","coordinates":[50856,24867],"properties":{"id":"484","lon":-105.88476,"city":"Lamy","province":null,"country":"USA","lat":35.47749,"state":"NM"}},
{"type":"Point","coordinates":[33110,31665],"properties":{"id":"485","lon":-121.27159,"city":"Lodi","province":null,"country":"USA","lat":38.13354,"state":"CA"}},
{"type":"Point","coordinates":[83915,33130],"properties":{"id":"486","lon":-77.22137,"city":"Lorton","province":null,"country":"USA","lat":38.70596,"state":"VA"}},
{"type":"Point","coordinates":[76898,44247],"properties":{"id":"487","lon":-83.30565,"city":"Lapeer","province":null,"country":"USA","lat":43.04963,"state":"MI"}},
{"type":"Point","coordinates":[33882,22838],"properties":{"id":"488","lon":-120.60252,"city":"Surf","province":null,"country":"USA","lat":34.68446,"state":"CA"}},
{"type":"Point","coordinates":[63143,33811],"properties":{"id":"489","lon":-95.23172,"city":"Lawrence","province":null,"country":"USA","lat":38.97222,"state":"KS"}},
{"type":"Point","coordinates":[51632,25164],"properties":{"id":"490","lon":-105.21214,"city":"Las Vegas","province":null,"country":"USA","lat":35.5933,"state":"NM"}},
{"type":"Point","coordinates":[63727,17236],"properties":{"id":"491","lon":-94.72527,"city":"Longview","province":null,"country":"USA","lat":32.49587,"state":"TX"}},
{"type":"Point","coordinates":[33834,55909],"properties":{"id":"492","lon":-120.6444,"city":"Leavenworth","province":null,"country":"USA","lat":47.60657,"state":"WA"}},
{"type":"Point","coordinates":[68402,37622],"properties":{"id":"493","lon":-90.67228,"city":"Macomb","province":null,"country":"USA","lat":40.46113,"state":"IL"}},
{"type":"Point","coordinates":[71050,35117],"properties":{"id":"495","lon":-88.37553,"city":"Mattoon","province":null,"country":"USA","lat":39.48242,"state":"IL"}},
{"type":"Point","coordinates":[76361,32991],"properties":{"id":"496","lon":-83.77107,"city":"Maysville","province":null,"country":"USA","lat":38.65162,"state":"KY"}},
{"type":"Point","coordinates":[68654,14046],"properties":{"id":"497","lon":-90.45294,"city":"McComb","province":null,"country":"USA","lat":31.24929,"state":"MS"}},
{"type":"Point","coordinates":[60640,14529],"properties":{"id":"498","lon":-97.40173,"city":"McGregor","province":null,"country":"USA","lat":31.43792,"state":"TX"}},
{"type":"Point","coordinates":[72746,40847],"properties":{"id":"499","lon":-86.90522,"city":"Michigan City","province":null,"country":"USA","lat":41.72136,"state":"IN"}},
{"type":"Point","coordinates":[89013,40380],"properties":{"id":"500","lon":-72.80122,"city":"Meriden","province":null,"country":"USA","lat":41.539,"state":"CT"}},
{"type":"Point","coordinates":[34555,28699],"properties":{"id":"501","lon":-120.01894,"city":"Madera","province":null,"country":"USA","lat":36.97452,"state":"CA"}},
{"type":"Point","coordinates":[87252,37895],"properties":{"id":"502","lon":-74.32786,"city":"Iselin","province":null,"country":"USA","lat":40.56775,"state":"NJ"}},
{"type":"Point","coordinates":[64140,17378],"properties":{"id":"503","lon":-94.36684,"city":"Marshall","province":null,"country":"USA","lat":32.55135,"state":"TX"}},
{"type":"Point","coordinates":[84480,36935],"properties":{"id":"504","lon":-76.73161,"city":"Middletown","province":null,"country":"USA","lat":40.19295,"state":"PA"}},
{"type":"Point","coordinates":[62845,17661],"properties":{"id":"505","lon":-95.49013,"city":"Mineola","province":null,"country":"USA","lat":32.66188,"state":"TX"}},
{"type":"Point","coordinates":[84744,36720],"properties":{"id":"506","lon":-76.50291,"city":"Mount Joy","province":null,"country":"USA","lat":40.10892,"state":"PA"}},
{"type":"Point","coordinates":[79183,31786],"properties":{"id":"507","lon":-81.32407,"city":"Montgomery","province":null,"country":"USA","lat":38.1807,"state":"WV"}},
{"type":"Point","coordinates":[33526,30474],"properties":{"id":"508","lon":-120.9116,"city":"Modesto","province":null,"country":"USA","lat":37.66814,"state":"CA"}},
{"type":"Point","coordinates":[83061,35055],"properties":{"id":"509","lon":-77.9615,"city":"Martinsburg","province":null,"country":"USA","lat":39.45827,"state":"WV"}},
{"type":"Point","coordinates":[83624,33243],"properties":{"id":"511","lon":-77.47385,"city":"Manassas","province":null,"country":"USA","lat":38.75003,"state":"VA"}},
{"type":"Point","coordinates":[67388,38928],"properties":{"id":"512","lon":-91.55124,"city":"Mount Pleasant","province":null,"country":"USA","lat":40.97131,"state":"IA"}},
{"type":"Point","coordinates":[31891,58034],"properties":{"id":"513","lon":-122.32919,"city":"Mount Vernon","province":null,"country":"USA","lat":48.43685,"state":"WA"}},
{"type":"Point","coordinates":[89983,39895],"properties":{"id":"514","lon":-71.95978,"city":"Mystic","province":null,"country":"USA","lat":41.3492,"state":"CT"}},
{"type":"Point","coordinates":[70027,26492],"properties":{"id":"515","lon":-89.26296,"city":"Newbern","province":null,"country":"USA","lat":36.11245,"state":"TN"}},
{"type":"Point","coordinates":[72930,41040],"properties":{"id":"516","lon":-86.74573,"city":"New Buffalo","province":null,"country":"USA","lat":41.79657,"state":"MI"}},
{"type":"Point","coordinates":[84327,33763],"properties":{"id":"517","lon":-76.86443,"city":"New Carrollton","province":null,"country":"USA","lat":38.95333,"state":"MD"}},
{"type":"Point","coordinates":[60706,31444],"properties":{"id":"518","lon":-97.3446,"city":"Newton","province":null,"country":"USA","lat":38.04731,"state":"KS"}},
{"type":"Point","coordinates":[85005,28362],"properties":{"id":"519","lon":-76.276288,"city":"Norfolk","province":null,"country":"USA","lat":36.843106,"state":"VA"}},
{"type":"Point","coordinates":[67074,10870],"properties":{"id":"520","lon":-91.82352,"city":"New Iberia","province":null,"country":"USA","lat":30.00849,"state":"LA"}},
{"type":"Point","coordinates":[89829,39908],"properties":{"id":"521","lon":-72.09389,"city":"New London","province":null,"country":"USA","lat":41.35433,"state":"CT"}},
{"type":"Point","coordinates":[73498,41142],"properties":{"id":"522","lon":-86.25362,"city":"Niles","province":null,"country":"USA","lat":41.83658,"state":"MI"}},
{"type":"Point","coordinates":[60594,24207],"properties":{"id":"523","lon":-97.44217,"city":"Norman","province":null,"country":"USA","lat":35.21963,"state":"OK"}},
{"type":"Point","coordinates":[71316,40996],"properties":{"id":"524","lon":-88.14541,"city":"Naperville","province":null,"country":"USA","lat":41.77962,"state":"IL"}},
{"type":"Point","coordinates":[85608,35598],"properties":{"id":"525","lon":-75.75335,"city":"Newark","province":null,"country":"USA","lat":39.67032,"state":"DE"}},
{"type":"Point","coordinates":[87882,38781],"properties":{"id":"526","lon":-73.782,"city":"New Rochelle","province":null,"country":"USA","lat":40.91392,"state":"NY"}},
{"type":"Point","coordinates":[79753,3814],"properties":{"id":"527","lon":-80.83031,"city":"Okeechobee","province":null,"country":"USA","lat":27.25122,"state":"FL"}},
{"type":"Point","coordinates":[31352,54333],"properties":{"id":"528","lon":-122.79581,"city":"Olympia","province":null,"country":"USA","lat":46.99066,"state":"WA"}},
{"type":"Point","coordinates":[37288,21244],"properties":{"id":"529","lon":-117.64957,"city":"Ontario","province":null,"country":"USA","lat":34.06167,"state":"CA"}},
{"type":"Point","coordinates":[91806,45425],"properties":{"id":"530","lon":-70.37974,"city":"Old Orchard","province":null,"country":"USA","lat":43.51018,"state":"ME"}},
{"type":"Point","coordinates":[31581,50171],"properties":{"id":"531","lon":-122.59768,"city":"Oregon City","province":null,"country":"USA","lat":45.36454,"state":"OR"}},
{"type":"Point","coordinates":[89503,39770],"properties":{"id":"532","lon":-72.37602,"city":"Old Saybrook","province":null,"country":"USA","lat":41.30053,"state":"CT"}},
{"type":"Point","coordinates":[35529,21595],"properties":{"id":"533","lon":-119.17487,"city":"Oxnard","province":null,"country":"USA","lat":34.19883,"state":"CA"}},
{"type":"Point","coordinates":[78818,9951],"properties":{"id":"534","lon":-81.64054,"city":"Palatka","province":null,"country":"USA","lat":29.64931,"state":"FL"}},
{"type":"Point","coordinates":[68723,28134],"properties":{"id":"535","lon":-90.39343,"city":"Poplar Bluff","province":null,"country":"USA","lat":36.75399,"state":"MO"}},
{"type":"Point","coordinates":[69546,12191],"properties":{"id":"536","lon":-89.68014,"city":"Picayune","province":null,"country":"USA","lat":30.52471,"state":"MS"}},
{"type":"Point","coordinates":[88488,42713],"properties":{"id":"537","lon":-73.25604,"city":"Pittsfield","province":null,"country":"USA","lat":42.4504,"state":"MA"}},
{"type":"Point","coordinates":[86911,37254],"properties":{"id":"538","lon":-74.62323,"city":"Princeton Jct","province":null,"country":"USA","lat":40.31722,"state":"NJ"}},
{"type":"Point","coordinates":[88267,48463],"properties":{"id":"539","lon":-73.44746,"city":"Plattsburgh","province":null,"country":"USA","lat":44.69699,"state":"NY"}},
{"type":"Point","coordinates":[76911,43188],"properties":{"id":"540","lon":-83.29417,"city":"Pontiac","province":null,"country":"USA","lat":42.63585,"state":"MI"}},
{"type":"Point","coordinates":[88251,46764],"properties":{"id":"541","lon":-73.46193,"city":"Port Henry","province":null,"country":"USA","lat":44.03307,"state":"NY"}},
{"type":"Point","coordinates":[70749,38692],"properties":{"id":"542","lon":-88.6365,"city":"Pontiac","province":null,"country":"USA","lat":40.87944,"state":"IL"}},
{"type":"Point","coordinates":[37171,21238],"properties":{"id":"543","lon":-117.75063,"city":"Pomona","province":null,"country":"USA","lat":34.0594,"state":"CA"}},
{"type":"Point","coordinates":[87701,40807],"properties":{"id":"544","lon":-73.93901,"city":"Poughkeepsie","province":null,"country":"USA","lat":41.70567,"state":"NY"}},
{"type":"Point","coordinates":[33785,25239],"properties":{"id":"545","lon":-120.68694,"city":"Paso Robles","province":null,"country":"USA","lat":35.62293,"state":"CA"}},
{"type":"Point","coordinates":[79494,30961],"properties":{"id":"546","lon":-81.05422,"city":"Prince","province":null,"country":"USA","lat":37.85871,"state":"WV"}},
{"type":"Point","coordinates":[88271,48158],"properties":{"id":"547","lon":-73.44428,"city":"Port Kent","province":null,"country":"USA","lat":44.57804,"state":"NY"}},
{"type":"Point","coordinates":[44193,37020],"properties":{"id":"548","lon":-111.66272,"city":"Provo","province":null,"country":"USA","lat":40.22587,"state":"UT"}},
{"type":"Point","coordinates":[38562,20819],"properties":{"id":"549","lon":-116.54501,"city":"North Palm Springs","province":null,"country":"USA","lat":33.89594,"state":"CA"}},
{"type":"Point","coordinates":[77894,44019],"properties":{"id":"550","lon":-82.44181,"city":"Port Huron","province":null,"country":"USA","lat":42.96079,"state":"MI"}},
{"type":"Point","coordinates":[60851,22983],"properties":{"id":"551","lon":-97.219,"city":"Pauls Valley","province":null,"country":"USA","lat":34.74147,"state":"OK"}},
{"type":"Point","coordinates":[31818,37933],"properties":{"id":"552","lon":-122.39192,"city":"Redding","province":null,"country":"USA","lat":40.58283,"state":"CA"}},
{"type":"Point","coordinates":[72459,38855],"properties":{"id":"553","lon":-87.15448,"city":"Rennselaer","province":null,"country":"USA","lat":40.94304,"state":"IN"}},
{"type":"Point","coordinates":[87685,41358],"properties":{"id":"554","lon":-73.95207,"city":"Rhinecliff","province":null,"country":"USA","lat":41.92089,"state":"NY"}},
{"type":"Point","coordinates":[31863,31159],"properties":{"id":"555","lon":-122.35305,"city":"Richmond","province":null,"country":"USA","lat":37.93608,"state":"CA"}},
{"type":"Point","coordinates":[37611,21026],"properties":{"id":"556","lon":-117.36962,"city":"Riverside","province":null,"country":"USA","lat":33.97652,"state":"CA"}},
{"type":"Point","coordinates":[84001,34101],"properties":{"id":"557","lon":-77.14696,"city":"Rockville","province":null,"country":"USA","lat":39.08545,"state":"MD"}},
{"type":"Point","coordinates":[33151,33349],"properties":{"id":"558","lon":-121.23627,"city":"Rocklin","province":null,"country":"USA","lat":38.79154,"state":"CA"}},
{"type":"Point","coordinates":[83250,26046],"properties":{"id":"559","lon":-77.7979,"city":"Rocky Mount","province":null,"country":"USA","lat":35.93815,"state":"NC"}},
{"type":"Point","coordinates":[77080,42812],"properties":{"id":"560","lon":-83.14784,"city":"Royal Oak","province":null,"country":"USA","lat":42.48904,"state":"MI"}},
{"type":"Point","coordinates":[89169,46481],"properties":{"id":"561","lon":-72.66585,"city":"Randolph","province":null,"country":"USA","lat":43.92285,"state":"VT"}},
{"type":"Point","coordinates":[88356,49225],"properties":{"id":"562","lon":-73.37109,"city":"Rouses Point","province":null,"country":"USA","lat":44.9948,"state":"NY"}},
{"type":"Point","coordinates":[90917,42092],"properties":{"id":"563","lon":-71.14994,"city":"Westwood","province":null,"country":"USA","lat":42.20787,"state":"MA"}},
{"type":"Point","coordinates":[71300,37240],"properties":{"id":"564","lon":-88.15902,"city":"Rantoul","province":null,"country":"USA","lat":40.312,"state":"IL"}},
{"type":"Point","coordinates":[37842,17800],"properties":{"id":"565","lon":-117.16856,"city":"San Diego","province":null,"country":"USA","lat":32.71616,"state":"CA"}},
{"type":"Point","coordinates":[91727,45390],"properties":{"id":"566","lon":-70.44761,"city":"Saco","province":null,"country":"USA","lat":43.4963,"state":"ME"}},
{"type":"Point","coordinates":[79055,4443],"properties":{"id":"568","lon":-81.43475,"city":"Sebring","province":null,"country":"USA","lat":27.49726,"state":"FL"}},
{"type":"Point","coordinates":[64393,50689],"properties":{"id":"569","lon":-94.14779,"city":"St Cloud","province":null,"country":"USA","lat":45.56689,"state":"MN"}},
{"type":"Point","coordinates":[69428,11561],"properties":{"id":"571","lon":-89.78243,"city":"Slidell","province":null,"country":"USA","lat":30.27823,"state":"LA"}},
{"type":"Point","coordinates":[65453,33145],"properties":{"id":"572","lon":-93.22838,"city":"Sedalia","province":null,"country":"USA","lat":38.71187,"state":"MO"}},
{"type":"Point","coordinates":[79224,7797],"properties":{"id":"573","lon":-81.28858,"city":"Sanford","province":null,"country":"USA","lat":28.80759,"state":"FL"}},
{"type":"Point","coordinates":[36083,21777],"properties":{"id":"574","lon":-118.69372,"city":"Simi Valley","province":null,"country":"USA","lat":34.26995,"state":"CA"}},
{"type":"Point","coordinates":[32384,29611],"properties":{"id":"575","lon":-121.90121,"city":"San Jose","province":null,"country":"USA","lat":37.33107,"state":"CA"}},
{"type":"Point","coordinates":[73229,41833],"properties":{"id":"576","lon":-86.48675,"city":"St Joseph","province":null,"country":"USA","lat":42.10662,"state":"MI"}},
{"type":"Point","coordinates":[33096,31185],"properties":{"id":"577","lon":-121.28427,"city":"Stockton","province":null,"country":"USA","lat":37.94601,"state":"CA"}},
{"type":"Point","coordinates":[33823,24355],"properties":{"id":"578","lon":-120.65395,"city":"San Luis Obispo","province":null,"country":"USA","lat":35.27742,"state":"CA"}},
{"type":"Point","coordinates":[60024,10539],"properties":{"id":"579","lon":-97.93568,"city":"San Marcos","province":null,"country":"USA","lat":29.87923,"state":"TX"}},
{"type":"Point","coordinates":[71699,41028],"properties":{"id":"580","lon":-87.81318,"city":"Summit","province":null,"country":"USA","lat":41.79216,"state":"IL"}},
{"type":"Point","coordinates":[54877,11207],"properties":{"id":"581","lon":-102.39906,"city":"Sanderson","province":null,"country":"USA","lat":30.1401,"state":"TX"}},
{"type":"Point","coordinates":[37323,19599],"properties":{"id":"582","lon":-117.61901,"city":"San Clemente","province":null,"country":"USA","lat":33.41916,"state":"CA"}},
{"type":"Point","coordinates":[81412,24091],"properties":{"id":"583","lon":-79.3919,"city":"Southern Pines","province":null,"country":"USA","lat":35.1741,"state":"NC"}},
{"type":"Point","coordinates":[78478,23527],"properties":{"id":"584","lon":-81.93574,"city":"Spartanburg","province":null,"country":"USA","lat":34.95377,"state":"SC"}},
{"type":"Point","coordinates":[63647,52705],"properties":{"id":"585","lon":-94.79511,"city":"Staples","province":null,"country":"USA","lat":46.35459,"state":"MN"}},
{"type":"Point","coordinates":[77291,33168],"properties":{"id":"586","lon":-82.96429,"city":"South Shore","province":null,"country":"USA","lat":38.72091,"state":"KY"}},
{"type":"Point","coordinates":[38489,57561],"properties":{"id":"587","lon":-116.60822,"city":"Sandpoint","province":null,"country":"USA","lat":48.25176,"state":"ID"}},
{"type":"Point","coordinates":[81780,31701],"properties":{"id":"588","lon":-79.07272,"city":"Staunton","province":null,"country":"USA","lat":38.14778,"state":"VA"}},
{"type":"Point","coordinates":[88158,39119],"properties":{"id":"589","lon":-73.54268,"city":"Stamford","province":null,"country":"USA","lat":41.04618,"state":"CT"}},
{"type":"Point","coordinates":[54886,57734],"properties":{"id":"590","lon":-102.39078,"city":"Stanley","province":null,"country":"USA","lat":48.31936,"state":"ND"}},
{"type":"Point","coordinates":[32225,31946],"properties":{"id":"591","lon":-122.03954,"city":"Suisun City","province":null,"country":"USA","lat":38.24347,"state":"CA"}},
{"type":"Point","coordinates":[71593,43351],"properties":{"id":"592","lon":-87.90516,"city":"Sturtevant","province":null,"country":"USA","lat":42.69968,"state":"WI"}},
{"type":"Point","coordinates":[60632,12301],"properties":{"id":"593","lon":-97.4088,"city":"Taylor","province":null,"country":"USA","lat":30.56744,"state":"TX"}},
{"type":"Point","coordinates":[76868,22566],"properties":{"id":"594","lon":-83.33137,"city":"Toccoa","province":null,"country":"USA","lat":34.57853,"state":"GA"}},
{"type":"Point","coordinates":[71991,19019],"properties":{"id":"595","lon":-87.56015,"city":"Tuscaloosa","province":null,"country":"USA","lat":33.19226,"state":"AL"}},
{"type":"Point","coordinates":[79467,31212],"properties":{"id":"596","lon":-81.07806,"city":"Thurmond","province":null,"country":"USA","lat":37.95667,"state":"WV"}},
{"type":"Point","coordinates":[68595,46642],"properties":{"id":"597","lon":-90.50417,"city":"Tomah","province":null,"country":"USA","lat":43.98573,"state":"WI"}},
{"type":"Point","coordinates":[60706,13652],"properties":{"id":"598","lon":-97.3448,"city":"Temple","province":null,"country":"USA","lat":31.09538,"state":"TX"}},
{"type":"Point","coordinates":[52445,29206],"properties":{"id":"599","lon":-104.50727,"city":"Trinidad","province":null,"country":"USA","lat":37.1728,"state":"CO"}},
{"type":"Point","coordinates":[34363,34721],"properties":{"id":"600","lon":-120.18555,"city":"Truckee","province":null,"country":"USA","lat":39.32756,"state":"CA"}},
{"type":"Point","coordinates":[82739,38157],"properties":{"id":"601","lon":-78.24105,"city":"Tyrone","province":null,"country":"USA","lat":40.67032,"state":"PA"}},
{"type":"Point","coordinates":[31481,50850],"properties":{"id":"602","lon":-122.68472,"city":"Vancouver","province":null,"country":"USA","lat":45.6298,"state":"WA"}},
{"type":"Point","coordinates":[35388,21794],"properties":{"id":"603","lon":-119.29658,"city":"Ventura","province":null,"country":"USA","lat":34.27675,"state":"CA"}},
{"type":"Point","coordinates":[41110,57975],"properties":{"id":"604","lon":-114.33516,"city":"Whitefish","province":null,"country":"USA","lat":48.41357,"state":"MT"}},
{"type":"Point","coordinates":[36367,21626],"properties":{"id":"605","lon":-118.44792,"city":"Van Nuys","province":null,"country":"USA","lat":34.21098,"state":"CA"}},
{"type":"Point","coordinates":[37700,22459],"properties":{"id":"606","lon":-117.29213,"city":"Victorville","province":null,"country":"USA","lat":34.53663,"state":"CA"}},
{"type":"Point","coordinates":[89069,47536],"properties":{"id":"607","lon":-72.75247,"city":"Waterbury","province":null,"country":"USA","lat":44.33507,"state":"VT"}},
{"type":"Point","coordinates":[35348,25166],"properties":{"id":"608","lon":-119.33135,"city":"Wasco","province":null,"country":"USA","lat":35.59427,"state":"CA"}},
{"type":"Point","coordinates":[64863,33276],"properties":{"id":"609","lon":-93.74046,"city":"Warrensburg","province":null,"country":"USA","lat":38.76317,"state":"MO"}},
{"type":"Point","coordinates":[83884,33006],"properties":{"id":"610","lon":-77.24828,"city":"Woodbridge","province":null,"country":"USA","lat":38.65744,"state":"VA"}},
{"type":"Point","coordinates":[69436,45719],"properties":{"id":"611","lon":-89.77508,"city":"Wisconsin Dells","province":null,"country":"USA","lat":43.62479,"state":"WI"}},
{"type":"Point","coordinates":[91548,44943],"properties":{"id":"612","lon":-70.60303,"city":"Wells","province":null,"country":"USA","lat":43.32184,"state":"ME"}},
{"type":"Point","coordinates":[41530,58193],"properties":{"id":"613","lon":-113.97164,"city":"West Glacier","province":null,"country":"USA","lat":48.49873,"state":"MT"}},
{"type":"Point","coordinates":[88319,45540],"properties":{"id":"614","lon":-73.40311,"city":"Whitehall","province":null,"country":"USA","lat":43.55497,"state":"NY"}},
{"type":"Point","coordinates":[33462,50921],"properties":{"id":"615","lon":-120.96632,"city":"Wishram","province":null,"country":"USA","lat":45.65731,"state":"WA"}},
{"type":"Point","coordinates":[85840,35768],"properties":{"id":"616","lon":-75.55218,"city":"Wilmington","province":null,"country":"USA","lat":39.73692,"state":"DE"}},
{"type":"Point","coordinates":[67283,46794],"properties":{"id":"617","lon":-91.64175,"city":"Winona","province":null,"country":"USA","lat":44.04494,"state":"MN"}},
{"type":"Point","coordinates":[50934,36310],"properties":{"id":"618","lon":-105.81737,"city":"Fraser","province":null,"country":"USA","lat":39.9487,"state":"CO"}},
{"type":"Point","coordinates":[45311,23699],"properties":{"id":"619","lon":-110.69309,"city":"Winslow","province":null,"country":"USA","lat":35.02091,"state":"AZ"}},
{"type":"Point","coordinates":[90132,39976],"properties":{"id":"620","lon":-71.83069,"city":"Westerly","province":null,"country":"USA","lat":41.38102,"state":"RI"}},
{"type":"Point","coordinates":[89212,41374],"properties":{"id":"621","lon":-72.62856,"city":"Windsor Locks","province":null,"country":"USA","lat":41.92725,"state":"CT"}},
{"type":"Point","coordinates":[89492,45349],"properties":{"id":"622","lon":-72.38545,"city":"Windsor","province":null,"country":"USA","lat":43.48044,"state":"VT"}},
{"type":"Point","coordinates":[68074,26379],"properties":{"id":"623","lon":-90.95616,"city":"Walnut Ridge","province":null,"country":"USA","lat":36.06832,"state":"AR"}},
{"type":"Point","coordinates":[90175,42229],"properties":{"id":"624","lon":-71.79333,"city":"Worcester","province":null,"country":"USA","lat":42.26138,"state":"MA"}},
{"type":"Point","coordinates":[80638,2434],"properties":{"id":"625","lon":-80.06246,"city":"West Palm Beach","province":null,"country":"USA","lat":26.71234,"state":"FL"}},
{"type":"Point","coordinates":[79151,7258],"properties":{"id":"626","lon":-81.35198,"city":"Winter Park","province":null,"country":"USA","lat":28.59713,"state":"FL"}},
{"type":"Point","coordinates":[89570,45779],"properties":{"id":"627","lon":-72.31795,"city":"White River Junction","province":null,"country":"USA","lat":43.64856,"state":"VT"}},
{"type":"Point","coordinates":[88261,47158],"properties":{"id":"628","lon":-73.4529,"city":"Westport","province":null,"country":"USA","lat":44.1871,"state":"NY"}},
{"type":"Point","coordinates":[74915,40106],"properties":{"id":"629","lon":-85.02519,"city":"Waterloo","province":null,"country":"USA","lat":41.43171,"state":"IN"}},
{"type":"Point","coordinates":[68698,18138],"properties":{"id":"630","lon":-90.41504,"city":"Yazoo City","province":null,"country":"USA","lat":32.84808,"state":"MS"}},
{"type":"Point","coordinates":[79733,17728],"properties":{"id":"631","lon":-80.84714,"city":"Yemassee","province":null,"country":"USA","lat":32.68814,"state":"SC"}},
{"type":"Point","coordinates":[87742,38837],"properties":{"id":"632","lon":-73.90288,"city":"Yonkers","province":null,"country":"USA","lat":40.9361,"state":"NY"}},
{"type":"Point","coordinates":[0,90634],"properties":{"id":"634","lon":-149.97998,"city":"Anchorage","province":null,"country":"USA","lat":61.17454,"state":"AK"}},
{"type":"Point","coordinates":[942,90050],"properties":{"id":"635","lon":-149.1629,"city":"Girdwood","province":null,"country":"USA","lat":60.94646,"state":"AK"}},
{"type":"Point","coordinates":[1155,97481],"properties":{"id":"636","lon":-148.97816,"city":"Healy","province":null,"country":"USA","lat":63.84993,"state":"AK"}},
{"type":"Point","coordinates":[1488,89606],"properties":{"id":"637","lon":-148.68985,"city":"Whittier","province":null,"country":"USA","lat":60.77287,"state":"AK"}},
{"type":"Point","coordinates":[609,91679],"properties":{"id":"638","lon":-149.45171,"city":"Wasilla","province":null,"country":"USA","lat":61.5829,"state":"AK"}},
{"type":"Point","coordinates":[88871,52926],"properties":{"id":"639","lon":-72.924397,"city":"Charette","province":"QC","country":"CAN","lat":46.441037,"state":null}},
{"type":"Point","coordinates":[96857,56712],"properties":{"id":"640","lon":-66.00002,"city":"Belledune","province":"NB","country":"CAN","lat":47.9203,"state":null}},
{"type":"Point","coordinates":[50621,7355],"properties":{"id":"001","lon":-106.089,"city":"Chihuahua","province":null,"country":"MEX","lat":28.635,"state":"CHI"}},
{"type":"Point","coordinates":[47301,0],"properties":{"id":"004","lon":-108.967,"city":"Los Mochis","province":null,"country":"MEX","lat":25.761,"state":"SIN"}},
{"type":"Point","coordinates":[47733,1546],"properties":{"id":"003","lon":-108.593,"city":"El Fuerte","province":null,"country":"MEX","lat":26.366,"state":"SIN"}},
{"type":"Point","coordinates":[47934,2682],"properties":{"id":"034","lon":-108.419,"city":"Loreto","province":null,"country":"MEX","lat":26.809,"state":"SIN"}},
{"type":"Point","coordinates":[48118,3824],"properties":{"id":"006","lon":-108.259,"city":"Témoris","province":null,"country":"MEX","lat":27.256,"state":"CHI"}},
{"type":"Point","coordinates":[48543,4409],"properties":{"id":"040","lon":-107.89,"city":"Chihuahuicame","province":null,"country":"MEX","lat":27.484,"state":"CHI"}},
{"type":"Point","coordinates":[48666,4769],"properties":{"id":"012","lon":-107.784,"city":"Pitorreal","province":null,"country":"MEX","lat":27.625,"state":"CHI"}},
{"type":"Point","coordinates":[48838,5101],"properties":{"id":"019","lon":-107.635,"city":"Creel","province":null,"country":"MEX","lat":27.755,"state":"CHI"}},
{"type":"Point","coordinates":[48878,5659],"properties":{"id":"018","lon":-107.6,"city":"San Juanito","province":null,"country":"MEX","lat":27.972,"state":"CHI"}}
]}}}